,TimeS,MODE.ModeNum,IMU.GyrX,IMU.GyrY,IMU.AccX,IMU.AccY,IMU.Temp,IMU2.AccX,IMU2.AccZ,IMU2.Temp,CURR.Throttle,MAG.MagX,MAG.MagY,MAG.MagZ,BARO.Alt,CTUN.DCRt,CTUN.CRt,ATT.DesRoll,ATT.DesPitch,ATT.ErrRP,EKF1.VN,EKF1.VE,EKF1.PN,EKF2.Ratio,EKF3.IVN,EKF3.IVE,EKF3.IVD,EKF3.IPD,EKF3.IMY,EKF3.IMZ,EKF4.SV,RATE.RDes,RATE.ROut,RATE.PDes,RATE.POut,RATE.YDes,RATE.YOut,RATE.ADes,RATE.A,RCIN.C2,RCOU.Ch1,RCOU.Ch3,RCOU.Ch4,NTUN.DAccX,NTUN.DAccY,VIBE.VibeX,AHR2.Yaw,UBX2.magI,UBX2.magQ,PM.MaxT,label
0,1096974,0.0,0.0,0.0,0.0,0.0,0.0,0.0,0.0,0.0,0.0,0.0,0.0,0.0,0.0,0.0,0.0,0.0,0.0,0.0,0.0,0.0,0.0,0.0,0.0,0.0,0.0,0.0,0.0,0.0,0.0,0.0,0.0,0.0,0.0,0.0,0.0,0.0,0.0,0.0,0.0,0.0,0.0,0.0,0.0,0.0,0.0,0.0,0.0,0.0,0.0
1,1097513,5.0,0.0,0.0,0.0,0.0,0.0,0.0,0.0,0.0,0.0,0.0,0.0,0.0,0.0,0.0,0.0,0.0,0.0,0.0,0.0,0.0,0.0,0.0,0.0,0.0,0.0,0.0,0.0,0.0,0.0,0.0,0.0,0.0,0.0,0.0,0.0,0.0,0.0,0.0,0.0,0.0,0.0,0.0,0.0,0.0,0.0,0.0,0.0,0.0,0.0
2,1097513,5.0,0.0,0.0,0.0,0.0,0.0,0.0,0.0,0.0,0.0,0.0,0.0,0.0,0.0,0.0,0.0,0.0,0.0,0.0,0.0,0.0,0.0,0.0,0.0,0.0,0.0,0.0,0.0,0.0,0.0,0.0,0.0,0.0,0.0,0.0,0.0,0.0,0.0,0.0,0.0,0.0,0.0,0.0,0.0,0.0,0.0,0.0,0.0,0.0,0.0
3,1097513,5.0,0.0,0.0,0.0,0.0,0.0,0.0,0.0,0.0,0.0,0.0,0.0,0.0,0.0,0.0,0.0,0.0,0.0,0.0,0.0,0.0,0.0,0.0,0.0,0.0,0.0,0.0,0.0,0.0,0.0,0.0,0.0,0.0,0.0,0.0,0.0,0.0,0.0,0.0,0.0,0.0,0.0,0.0,0.0,0.0,0.0,0.0,0.0,0.0,0.0
4,1097513,5.0,0.0,0.0,0.0,0.0,0.0,0.0,0.0,0.0,0.0,0.0,0.0,0.0,0.0,0.0,0.0,0.0,0.0,0.0,0.0,0.0,0.0,0.0,0.0,0.0,0.0,0.0,0.0,0.0,0.0,0.0,0.0,0.0,0.0,0.0,0.0,0.0,0.0,0.0,0.0,0.0,0.0,0.0,0.0,0.0,0.0,0.0,0.0,0.0,0.0
5,1097513,5.0,0.0,0.0,0.0,0.0,0.0,0.0,0.0,0.0,0.0,0.0,0.0,0.0,0.0,0.0,0.0,0.0,0.0,0.0,0.0,0.0,0.0,0.0,0.0,0.0,0.0,0.0,0.0,0.0,0.0,0.0,0.0,0.0,0.0,0.0,0.0,0.0,0.0,0.0,0.0,0.0,0.0,0.0,0.0,0.0,0.0,0.0,0.0,0.0,0.0
6,1097513,5.0,0.0,0.0,0.0,0.0,0.0,0.0,0.0,0.0,0.0,0.0,0.0,0.0,0.0,0.0,0.0,0.0,0.0,0.0,0.0,0.0,0.0,0.0,0.0,0.0,0.0,0.0,0.0,0.0,0.0,0.0,0.0,0.0,0.0,0.0,0.0,0.0,0.0,0.0,0.0,0.0,0.0,0.0,0.0,0.0,0.0,0.0,0.0,0.0,0.0
7,1097513,5.0,0.0,0.0,0.0,0.0,0.0,0.0,0.0,0.0,0.0,0.0,0.0,0.0,0.0,0.0,0.0,0.0,0.0,0.0,0.0,0.0,0.0,0.0,0.0,0.0,0.0,0.0,0.0,0.0,0.0,0.0,0.0,0.0,0.0,0.0,0.0,0.0,0.0,0.0,0.0,0.0,0.0,0.0,0.0,0.0,0.0,0.0,0.0,0.0,0.0
8,1097513,5.0,0.0,0.0,0.0,0.0,0.0,0.0,0.0,0.0,0.0,0.0,0.0,0.0,0.0,0.0,0.0,0.0,0.0,0.0,0.0,0.0,0.0,0.0,0.0,0.0,0.0,0.0,0.0,0.0,0.0,0.0,0.0,0.0,0.0,0.0,0.0,0.0,0.0,0.0,0.0,0.0,0.0,0.0,0.0,0.0,0.0,0.0,0.0,0.0,0.0
9,1097513,5.0,0.0,0.0,0.0,0.0,0.0,0.0,0.0,0.0,0.0,0.0,0.0,0.0,0.0,0.0,0.0,0.0,0.0,0.0,0.0,0.0,0.0,0.0,0.0,0.0,0.0,0.0,0.0,0.0,0.0,0.0,0.0,0.0,0.0,0.0,0.0,0.0,0.0,0.0,0.0,0.0,0.0,0.0,0.0,0.0,0.0,0.0,0.0,0.0,0.0
10,1097513,5.0,0.0,0.0,0.0,0.0,0.0,0.0,0.0,0.0,0.0,0.0,0.0,0.0,0.0,0.0,0.0,0.0,0.0,0.0,0.0,0.0,0.0,0.0,0.0,0.0,0.0,0.0,0.0,0.0,0.0,0.0,0.0,0.0,0.0,0.0,0.0,0.0,0.0,0.0,0.0,0.0,0.0,0.0,0.0,0.0,0.0,0.0,0.0,0.0,0.0
11,1097513,5.0,0.0,0.0,0.0,0.0,0.0,0.0,0.0,0.0,0.0,0.0,0.0,0.0,0.0,0.0,0.0,0.0,0.0,0.0,0.0,0.0,0.0,0.0,0.0,0.0,0.0,0.0,0.0,0.0,0.0,0.0,0.0,0.0,0.0,0.0,0.0,0.0,0.0,0.0,0.0,0.0,0.0,0.0,0.0,0.0,0.0,0.0,0.0,0.0,0.0
12,1097513,5.0,0.0,0.0,0.0,0.0,0.0,0.0,0.0,0.0,0.0,0.0,0.0,0.0,0.0,0.0,0.0,0.0,0.0,0.0,0.0,0.0,0.0,0.0,0.0,0.0,0.0,0.0,0.0,0.0,0.0,0.0,0.0,0.0,0.0,0.0,0.0,0.0,0.0,0.0,0.0,0.0,0.0,0.0,0.0,0.0,0.0,0.0,0.0,0.0,0.0
13,1097513,5.0,0.0,0.0,0.0,0.0,0.0,0.0,0.0,0.0,0.0,0.0,0.0,0.0,0.0,0.0,0.0,0.0,0.0,0.0,0.0,0.0,0.0,0.0,0.0,0.0,0.0,0.0,0.0,0.0,0.0,0.0,0.0,0.0,0.0,0.0,0.0,0.0,0.0,0.0,0.0,0.0,0.0,0.0,0.0,0.0,0.0,0.0,0.0,0.0,0.0
14,1097513,5.0,0.0,0.0,0.0,0.0,0.0,0.0,0.0,0.0,0.0,0.0,0.0,0.0,0.0,0.0,0.0,0.0,0.0,0.0,0.0,0.0,0.0,0.0,0.0,0.0,0.0,0.0,0.0,0.0,0.0,0.0,0.0,0.0,0.0,0.0,0.0,0.0,0.0,0.0,0.0,0.0,0.0,0.0,0.0,0.0,0.0,0.0,0.0,0.0,0.0
15,1097513,5.0,0.0,0.0,0.0,0.0,0.0,0.0,0.0,0.0,0.0,0.0,0.0,0.0,0.0,0.0,0.0,0.0,0.0,0.0,0.0,0.0,0.0,0.0,0.0,0.0,0.0,0.0,0.0,0.0,0.0,0.0,0.0,0.0,0.0,0.0,0.0,0.0,0.0,0.0,0.0,0.0,0.0,0.0,0.0,0.0,0.0,0.0,0.0,0.0,0.0
16,1097513,5.0,0.0,0.0,0.0,0.0,0.0,0.0,0.0,0.0,0.0,0.0,0.0,0.0,0.0,0.0,0.0,0.0,0.0,0.0,0.0,0.0,0.0,0.0,0.0,0.0,0.0,0.0,0.0,0.0,0.0,0.0,0.0,0.0,0.0,0.0,0.0,0.0,0.0,0.0,0.0,0.0,0.0,0.0,0.0,0.0,0.0,0.0,0.0,0.0,0.0
17,1097513,5.0,0.0,0.0,0.0,0.0,0.0,0.0,0.0,0.0,0.0,0.0,0.0,0.0,0.0,0.0,0.0,0.0,0.0,0.0,0.0,0.0,0.0,0.0,0.0,0.0,0.0,0.0,0.0,0.0,0.0,0.0,0.0,0.0,0.0,0.0,0.0,0.0,0.0,0.0,0.0,0.0,0.0,0.0,0.0,0.0,0.0,0.0,0.0,0.0,0.0
18,1097513,5.0,0.0,0.0,0.0,0.0,0.0,0.0,0.0,0.0,0.0,0.0,0.0,0.0,0.0,0.0,0.0,0.0,0.0,0.0,0.0,0.0,0.0,0.0,0.0,0.0,0.0,0.0,0.0,0.0,0.0,0.0,0.0,0.0,0.0,0.0,0.0,0.0,0.0,0.0,0.0,0.0,0.0,0.0,0.0,0.0,0.0,0.0,0.0,0.0,0.0
19,1097513,5.0,0.0,0.0,0.0,0.0,0.0,0.0,0.0,0.0,0.0,0.0,0.0,0.0,0.0,0.0,0.0,0.0,0.0,0.0,0.0,0.0,0.0,0.0,0.0,0.0,0.0,0.0,0.0,0.0,0.0,0.0,0.0,0.0,0.0,0.0,0.0,0.0,0.0,0.0,0.0,0.0,0.0,0.0,0.0,0.0,0.0,0.0,0.0,0.0,0.0
20,1097513,5.0,0.0,0.0,0.0,0.0,0.0,0.0,0.0,0.0,0.0,0.0,0.0,0.0,0.0,0.0,0.0,0.0,0.0,0.0,0.0,0.0,0.0,0.0,0.0,0.0,0.0,0.0,0.0,0.0,0.0,0.0,0.0,0.0,0.0,0.0,0.0,0.0,0.0,0.0,0.0,0.0,0.0,0.0,0.0,0.0,0.0,0.0,0.0,0.0,0.0
21,1097513,5.0,0.0,0.0,0.0,0.0,0.0,0.0,0.0,0.0,0.0,0.0,0.0,0.0,0.0,0.0,0.0,0.0,0.0,0.0,0.0,0.0,0.0,0.0,0.0,0.0,0.0,0.0,0.0,0.0,0.0,0.0,0.0,0.0,0.0,0.0,0.0,0.0,0.0,0.0,0.0,0.0,0.0,0.0,0.0,0.0,0.0,0.0,0.0,0.0,0.0
22,1097513,5.0,0.0,0.0,0.0,0.0,0.0,0.0,0.0,0.0,0.0,0.0,0.0,0.0,0.0,0.0,0.0,0.0,0.0,0.0,0.0,0.0,0.0,0.0,0.0,0.0,0.0,0.0,0.0,0.0,0.0,0.0,0.0,0.0,0.0,0.0,0.0,0.0,0.0,0.0,0.0,0.0,0.0,0.0,0.0,0.0,0.0,0.0,0.0,0.0,0.0
23,1097513,5.0,0.0,0.0,0.0,0.0,0.0,0.0,0.0,0.0,0.0,0.0,0.0,0.0,0.0,0.0,0.0,0.0,0.0,0.0,0.0,0.0,0.0,0.0,0.0,0.0,0.0,0.0,0.0,0.0,0.0,0.0,0.0,0.0,0.0,0.0,0.0,0.0,0.0,0.0,0.0,0.0,0.0,0.0,0.0,0.0,0.0,0.0,0.0,0.0,0.0
24,1097513,5.0,0.0,0.0,0.0,0.0,0.0,0.0,0.0,0.0,0.0,0.0,0.0,0.0,0.0,0.0,0.0,0.0,0.0,0.0,0.0,0.0,0.0,0.0,0.0,0.0,0.0,0.0,0.0,0.0,0.0,0.0,0.0,0.0,0.0,0.0,0.0,0.0,0.0,0.0,0.0,0.0,0.0,0.0,0.0,0.0,0.0,0.0,0.0,0.0,0.0
25,1097513,5.0,0.0,0.0,0.0,0.0,0.0,0.0,0.0,0.0,0.0,0.0,0.0,0.0,0.0,0.0,0.0,0.0,0.0,0.0,0.0,0.0,0.0,0.0,0.0,0.0,0.0,0.0,0.0,0.0,0.0,0.0,0.0,0.0,0.0,0.0,0.0,0.0,0.0,0.0,0.0,0.0,0.0,0.0,0.0,0.0,0.0,0.0,0.0,0.0,0.0
26,1097513,5.0,0.0,0.0,0.0,0.0,0.0,0.0,0.0,0.0,0.0,0.0,0.0,0.0,0.0,0.0,0.0,0.0,0.0,0.0,0.0,0.0,0.0,0.0,0.0,0.0,0.0,0.0,0.0,0.0,0.0,0.0,0.0,0.0,0.0,0.0,0.0,0.0,0.0,0.0,0.0,0.0,0.0,0.0,0.0,0.0,0.0,0.0,0.0,0.0,0.0
27,1097513,5.0,0.0,0.0,0.0,0.0,0.0,0.0,0.0,0.0,0.0,0.0,0.0,0.0,0.0,0.0,0.0,0.0,0.0,0.0,0.0,0.0,0.0,0.0,0.0,0.0,0.0,0.0,0.0,0.0,0.0,0.0,0.0,0.0,0.0,0.0,0.0,0.0,0.0,0.0,0.0,0.0,0.0,0.0,0.0,0.0,0.0,0.0,0.0,0.0,0.0
28,1097513,5.0,0.0,0.0,0.0,0.0,0.0,0.0,0.0,0.0,0.0,0.0,0.0,0.0,0.0,0.0,0.0,0.0,0.0,0.0,0.0,0.0,0.0,0.0,0.0,0.0,0.0,0.0,0.0,0.0,0.0,0.0,0.0,0.0,0.0,0.0,0.0,0.0,0.0,0.0,0.0,0.0,0.0,0.0,0.0,0.0,0.0,0.0,0.0,0.0,0.0
29,1097513,5.0,0.0,0.0,0.0,0.0,0.0,0.0,0.0,0.0,0.0,0.0,0.0,0.0,0.0,0.0,0.0,0.0,0.0,0.0,0.0,0.0,0.0,0.0,0.0,0.0,0.0,0.0,0.0,0.0,0.0,0.0,0.0,0.0,0.0,0.0,0.0,0.0,0.0,0.0,0.0,0.0,0.0,0.0,0.0,0.0,0.0,0.0,0.0,0.0,0.0
30,1097513,5.0,0.0,0.0,0.0,0.0,0.0,0.0,0.0,0.0,0.0,0.0,0.0,0.0,0.0,0.0,0.0,0.0,0.0,0.0,0.0,0.0,0.0,0.0,0.0,0.0,0.0,0.0,0.0,0.0,0.0,0.0,0.0,0.0,0.0,0.0,0.0,0.0,0.0,0.0,0.0,0.0,0.0,0.0,0.0,0.0,0.0,0.0,0.0,0.0,0.0
31,1100435,5.0,0.0,0.0,0.0,0.0,0.0,0.0,0.0,0.0,0.0,0.0,0.0,0.0,0.0,0.0,0.0,0.0,0.0,0.0,0.0,0.0,0.0,0.0,0.0,0.0,0.0,0.0,0.0,0.0,0.0,0.0,0.0,0.0,0.0,0.0,0.0,0.0,0.0,0.0,0.0,0.0,0.0,0.0,0.0,0.0,0.0,0.0,0.0,0.0,0.0
32,1100437,5.00084997875053,0.0,0.0,0.0,0.0,0.0,0.0,0.0,0.0,0.0,0.0,0.0,0.0,4.238761,7.0,7.0,0.0,0.0,0.0,0.04921145,-0.00674732,-0.9884514,0.0,0.0,0.0,0.0,0.0,0.0,0.0,0.0,0.0,0.0,0.0,0.0,0.0,0.0,0.0,0.0,0.0,0.0,0.0,0.0,0.0,0.0,0.0,0.0,0.0,0.0,0.0,0.0
33,1100438,5.00169995750106,0.0,0.0,0.0,0.0,0.0,0.0,0.0,0.0,0.0,0.0,0.0,0.0,4.2106285,6.92857142857143,6.92857142857143,0.0,0.0,0.004,0.0524340013333333,-0.006173227,-0.9880159,49.0,0.03,0.0,-0.08,-0.04,4.0,0.0,0.01,41.97179,-96.0,364.4437,-782.0,-81.75346,47.0,-1.910973,-1.910973,1486.0,1094.0,1094.0,1094.0,80.85878,-3.614172,0.02940254,339.38,0.0,0.0,0.0,0.0
34,1100439,5.00254993625159,0.001512895,0.02479976,0.1971833,0.1907958,48.38504,0.094031,-9.790529,52.0,0.0,0.0,0.0,0.0,4.182496,6.85714285714286,6.85714285714286,0.0,0.0,0.008,0.0556565526666667,-0.005599134,-0.9875804,48.9285714285714,0.0328571428571429,0.0007142857142857,-0.0785714285714286,-0.0764285714285714,3.71428571428571,-0.0714285714285714,0.01,38.7163311428571,-88.9285714285714,339.60042,-726.142857142857,-75.3591193571429,43.4285714285714,-2.6373185,-2.6373185,1486.0,1098.92857142857,1098.92857142857,1098.92857142857,80.8464607142857,-3.60360928571429,0.0293916671428571,339.38,0.0,0.0,0.0,0.0
35,1100454,5.00339991500212,0.0009077932333333,0.016088024,0.191156066666667,0.185007933333333,48.38504,0.0730884666666667,-9.76435766666667,52.4583333333333,0.0,0.0,0.0,0.0,4.1543635,6.78571428571429,6.78571428571429,0.0,0.0,0.012,0.058879104,-0.005025041,-0.9871449,48.8571428571429,0.0357142857142857,0.0014285714285714,-0.0771428571428571,-0.112857142857143,3.42857142857143,-0.142857142857143,0.01,35.4608722857143,-81.8571428571429,314.75714,-670.285714285714,-68.9647787142857,39.8571428571429,-3.363664,-3.363664,1486.0,1103.85714285714,1103.85714285714,1103.85714285714,80.8341414285714,-3.59304657142857,0.0293807942857143,339.38,0.0,0.0,0.0,0.0
36,1100454,5.00424989375266,0.0003026914666666,0.007376288,0.185128833333333,0.179220066666667,48.38504,0.0521459333333333,-9.73818633333333,52.9166666666667,0.0,0.0,0.0,0.0,4.126231,6.71428571428571,6.71428571428571,0.0,0.0,0.016,0.0621016553333333,-0.004450948,-0.9867094,48.7857142857143,0.0385714285714286,0.0021428571428571,-0.0757142857142857,-0.149285714285714,3.14285714285714,-0.214285714285714,0.01,32.2054134285714,-74.7857142857143,289.91386,-614.428571428571,-62.5704380714286,36.2857142857143,-4.0900095,-4.0900095,1486.0,1108.78571428571,1108.78571428571,1108.78571428571,80.8218221428571,-3.58248385714286,0.0293699214285714,339.38,0.0,0.0,0.0,0.0
37,1100459,5.00509987250319,-0.0003024103,-0.001335448,0.1791016,0.1734322,48.38504,0.0312034,-9.712015,53.375,0.0,0.0,0.0,0.0,4.0980985,6.64285714285714,6.64285714285714,0.0,0.0,0.02,0.0653242066666667,-0.003876855,-0.9862739,48.7142857142857,0.0414285714285714,0.0028571428571428,-0.0742857142857143,-0.185714285714286,2.85714285714286,-0.285714285714286,0.01,28.9499545714286,-67.7142857142857,265.07058,-558.571428571429,-56.1760974285714,32.7142857142857,-4.816355,-4.816355,1486.0,1113.71428571429,1113.71428571429,1113.71428571429,80.8095028571429,-3.57192114285714,0.0293590485714286,339.38,0.0,0.0,0.0,0.0
38,1100474,5.00594985125372,-0.000304240175,-0.0010002017925,0.1830126,0.1766695,48.37396,0.0143055925,-9.732965,53.09375,0.0,0.0,0.0,0.0,4.069966,6.57142857142857,6.57142857142857,0.0,0.0,0.024,0.068546758,-0.003302762,-0.9858384,48.6428571428571,0.0442857142857143,0.0035714285714285,-0.0728571428571429,-0.222142857142857,2.57142857142857,-0.357142857142857,0.01,25.6944957142857,-60.6428571428571,240.2273,-502.714285714286,-49.7817567857143,29.1428571428571,-5.5427005,-5.5427005,1486.0,1118.64285714286,1118.64285714286,1118.64285714286,80.7971835714286,-3.56135842857143,0.0293481757142857,339.38,0.0,0.0,0.0,0.0
39,1100474,5.00679983000425,-0.00030607005,-0.000664955585,0.1869236,0.1799068,48.36288,-0.002592215,-9.753915,52.8125,0.0,0.0,0.0,0.0,4.0418335,6.5,6.5,0.0,0.0,0.028,0.0717693093333333,-0.002728669,-0.9854029,48.5714285714286,0.0471428571428571,0.0042857142857142,-0.0714285714285714,-0.258571428571429,2.28571428571429,-0.428571428571429,0.01,22.4390368571429,-53.5714285714286,215.38402,-446.857142857143,-43.3874161428571,25.5714285714286,-6.269046,-6.269046,1486.0,1123.57142857143,1123.57142857143,1123.57142857143,80.7848642857143,-3.55079571428571,0.0293373028571429,339.38,0.0,0.0,0.0,0.0
40,1100474,5.00764980875478,-0.000307899925,-0.0003297093775,0.1908346,0.1831441,48.3518,-0.0194900225,-9.774865,52.53125,0.0,0.0,0.0,0.0,4.013701,6.42857142857143,6.42857142857143,0.0,0.0,0.032,0.0749918606666667,-0.002154576,-0.9849674,48.5,0.05,0.005,-0.07,-0.295,2.0,-0.5,0.01,19.183578,-46.5,190.54074,-391.0,-36.9930755,22.0,-6.9953915,-6.9953915,1486.0,1128.5,1128.5,1128.5,80.772545,-3.540233,0.02932643,339.38,0.0,0.0,0.0,0.0
41,1100479,5.00849978750531,-0.0003097298,5.53683e-06,0.1947456,0.1863814,48.34072,-0.03638783,-9.795815,52.25,0.0,0.0,0.0,0.0,3.9855685,6.35714285714286,6.35714285714286,0.0,0.0,0.036,0.078214412,-0.001580483,-0.9845319,48.4285714285714,0.0528571428571429,0.0057142857142857,-0.0685714285714286,-0.331428571428571,1.71428571428571,-0.571428571428571,0.01,15.9281191428571,-39.4285714285714,165.69746,-335.142857142857,-30.5987348571429,18.4285714285714,-7.721737,-7.721737,1486.0,1133.42857142857,1133.42857142857,1133.42857142857,80.7602257142857,-3.52967028571429,0.0293155571428571,339.38,0.0,0.0,0.0,0.0
42,1100494,5.00934976625584,7.106485e-05,1.7240215e-05,0.1912556,0.1873802,48.34072,0.021400805,-9.842241,52.5,0.0,0.0,0.0,0.0,3.957436,6.28571428571429,6.28571428571429,0.0,0.0,0.04,0.0814369633333333,-0.00100639,-0.9840964,48.3571428571429,0.0557142857142857,0.0064285714285714,-0.0671428571428571,-0.367857142857143,1.42857142857143,-0.642857142857143,0.01,12.6726602857143,-32.3571428571429,140.85418,-279.285714285714,-24.2043942142857,14.8571428571429,-8.4480825,-8.4480825,1486.0,1138.35714285714,1138.35714285714,1138.35714285714,80.7479064285714,-3.51910757142857,0.0293046842857143,339.38,0.0,0.0,0.0,0.0
43,1100499,5.01019974500637,0.0004518595,2.89436e-05,0.1877656,0.188379,48.34072,0.07918944,-9.888667,52.75,0.0,0.0,0.0,0.0,3.9293035,6.21428571428571,6.21428571428571,0.0,0.0,0.044,0.0846595146666667,-0.000432297,-0.9836609,48.2857142857143,0.0585714285714286,0.0071428571428571,-0.0657142857142857,-0.404285714285714,1.14285714285714,-0.714285714285714,0.01,9.41720142857143,-25.2857142857143,116.0109,-223.428571428571,-17.8100535714286,11.2857142857143,-9.174428,-9.174428,1486.0,1143.28571428571,1143.28571428571,1143.28571428571,80.7355871428571,-3.50854485714286,0.0292938114285714,339.38,0.0,0.0,0.0,0.0
44,1100519,5.01104972375691,0.001007734,-0.0001431512,0.199184,0.1907812,48.34072,0.07371654,-9.708045,52.125,0.0,0.0,0.0,0.0,3.901171,6.14285714285714,6.14285714285714,0.0,0.0,0.048,0.087882066,0.000141796,-0.9832254,48.2142857142857,0.0614285714285714,0.0078571428571428,-0.0642857142857143,-0.440714285714286,0.857142857142857,-0.785714285714286,0.01,6.16174257142858,-18.2142857142857,91.16762,-167.571428571429,-11.4157129285714,7.71428571428572,-9.9007735,-9.9007735,1486.0,1148.21428571429,1148.21428571429,1148.21428571429,80.7232678571429,-3.49798214285714,0.0292829385714286,339.38,0.0,0.0,0.0,0.0
45,1100534,5.01189970250744,0.0007206611333333,-5.55202e-05,0.198433366666667,0.184843133333333,48.34072,0.06806797,-9.694781,52.0833333333333,84.0,334.0,100.0,-375.0,3.8730385,6.07142857142857,6.07142857142857,0.0,0.0,0.052,0.0911046173333333,0.000715889,-0.9827899,48.1428571428571,0.0642857142857143,0.0085714285714285,-0.0628571428571429,-0.477142857142857,0.571428571428572,-0.857142857142857,0.01,2.90628371428572,-11.1428571428571,66.32434,-111.714285714286,-5.02137228571429,4.14285714285714,-10.627119,-10.627119,1486.0,1153.14285714286,1153.14285714286,1153.14285714286,80.7109485714286,-3.48741942857143,0.0292720657142857,339.38,0.0,0.0,0.0,0.0
46,1100538,5.01274968125797,0.0004335882666666,3.21108e-05,0.197682733333333,0.178905066666667,48.34072,0.0624194,-9.681517,52.0416666666667,84.0,333.875,100.0,-375.0,3.844906,6.0,6.0,0.0,0.0,0.056,0.0943271686666667,0.001289982,-0.9823544,48.0714285714286,0.0671428571428571,0.0092857142857142,-0.0614285714285714,-0.513571428571429,0.285714285714286,-0.928571428571428,0.01,-0.349175142857135,-4.07142857142857,41.48106,-55.8571428571429,1.37296835714285,0.571428571428569,-11.3534645,-11.3534645,1486.0,1158.07142857143,1158.07142857143,1158.07142857143,80.6986292857143,-3.47685671428571,0.0292611928571429,339.38,0.0,0.0,0.0,0.0
47,1100540,5.0135996600085,0.0001465154,0.0001197418,0.1969321,0.172967,48.34072,0.05677083,-9.668253,52.0,84.0,333.75,100.0,-375.0,3.89758075,5.875,5.875,0.0,0.0,0.06,0.09754972,0.001864075,-0.9819189,48.0,0.07,0.01,-0.06,-0.55,0.0,-1.0,0.01,-3.604634,3.0,16.63778,0.0,7.767309,-3.0,-12.07981,-12.07981,1486.0,1163.0,1163.0,1163.0,80.68631,-3.466294,0.02925032,339.38,0.0,0.0,0.0,0.0
48,1100554,5.01444963875903,-0.00017130925,0.0001727659,0.19525165,0.1810015,48.36288,0.07231361,-9.747604,52.0625,84.0,333.625,100.0,-375.0,3.9502555,5.75,5.75,0.0,0.0,0.06125,0.1042930425,0.002851287,-0.979565425,47.875,0.0675,0.01375,-0.0575,-0.49625,0.0,-0.875,0.01,-3.374186125,1.5,16.61758375,2.375,7.07007475,-2.5,-11.095868625,-11.095868625,1486.125,1163.0,1163.0,1163.0,80.70307875,-3.460165625,0.029331965,339.38,0.0,0.0,0.0,0.0
49,1100559,5.01529961750956,-0.0004891339,0.00022579,0.1935712,0.189036,48.38504,0.08785639,-9.826955,52.125,84.0,333.5,100.0,-375.0,4.00293025,5.625,5.625,0.0,0.0,0.0625,0.111036365,0.003838499,-0.97721195,47.75,0.065,0.0175,-0.055,-0.4425,0.0,-0.75,0.01,-3.14373825,0.0,16.5973875,4.75,6.3728405,-2.0,-10.11192725,-10.11192725,1486.25,1163.0,1163.0,1163.0,80.7198475,-3.45403725,0.02941361,339.38,0.0,0.0,0.0,0.0
50,1100579,5.01614959626009,-0.0002709148,0.0005231183,0.1816858,0.1943303,48.2964,0.08681709,-9.786821,52.0,84.0,333.375,100.0,-375.0,4.055605,5.5,5.5,0.0,0.0,0.06375,0.1177796875,0.004825711,-0.974858475,47.625,0.0625,0.02125,-0.0525,-0.38875,0.0,-0.625,0.01,-2.913290375,-1.5,16.57719125,7.125,5.67560625,-1.5,-9.127985875,-9.127985875,1486.375,1163.0,1163.0,1163.0,80.73661625,-3.447908875,0.029495255,339.38,0.0,0.0,0.0,0.0
51,1100599,5.01699957501063,-0.0001758574,0.0003842071,0.1983113,0.1867421,48.2964,0.1038529,-9.737035,52.25,84.0,333.25,100.0,-375.0,4.10827975,5.375,5.375,0.0,0.0,0.065,0.12452301,0.005812923,-0.972505,47.5,0.06,0.025,-0.05,-0.335,0.0,-0.5,0.01,-2.6828425,-3.0,16.556995,9.5,4.978372,-1.0,-8.1440445,-8.1440445,1486.5,1163.0,1163.0,1163.0,80.753385,-3.4417805,0.0295769,339.38,0.0,0.0,0.0,0.0
52,1100619,5.01784955376116,0.000486996,0.0002694017,0.1895897,0.1986812,48.34072,0.1058118,-9.765246,52.25,84.0,333.125,100.0,-375.0,4.1609545,5.25,5.25,0.0,0.0,0.06625,0.1312663325,0.006800135,-0.970151525,47.375,0.0575,0.02875,-0.0475,-0.28125,0.0,-0.375,0.01,-2.452394625,-4.5,16.53679875,11.875,4.28113775,-0.5,-7.160103125,-7.160103125,1486.625,1163.0,1163.0,1163.0,80.77015375,-3.435652125,0.029658545,339.38,0.0,0.0,0.0,0.0
53,1100634,5.01869953251169,0.0004379776333333,0.00016948619,0.1871089,0.199374333333333,48.3702666666667,0.0930361033333333,-9.77054866666667,52.1666666666667,84.0,333.0,100.0,-375.0,4.21362925,5.125,5.125,0.0,0.0,0.0675,0.138009655,0.007787347,-0.96779805,47.25,0.055,0.0325,-0.045,-0.2275,0.0,-0.25,0.01,-2.22194675,-6.0,16.5166025,14.25,3.5839035,0.0,-6.17616175,-6.17616175,1486.75,1163.0,1163.0,1163.0,80.7869225,-3.42952375,0.02974019,339.38,0.0,0.0,0.0,0.0
54,1100639,5.01954951126222,0.0003889592666666,6.957068e-05,0.1846281,0.200067466666667,48.3998133333333,0.0802604066666667,-9.77585133333333,52.0833333333333,90.2857142857143,332.714285714286,100.142857142857,-375.285714285714,4.266304,5.0,5.0,0.0,0.0,0.06875,0.1447529775,0.008774559,-0.965444575,47.125,0.0525,0.03625,-0.0425,-0.17375,0.0,-0.125,0.01,-1.991498875,-7.5,16.49640625,16.625,2.88666925,0.5,-5.192220375,-5.192220375,1486.875,1163.0,1163.0,1163.0,80.80369125,-3.423395375,0.029821835,339.38,0.0,0.0,0.0,0.0
55,1100641,5.02039949001275,0.0003399409,-3.034483e-05,0.1821473,0.2007606,48.42936,0.06748471,-9.781154,52.0,96.5714285714286,332.428571428571,100.285714285714,-375.571428571429,4.28046857142857,4.85714285714286,4.85714285714286,0.0,0.0,0.07,0.1514963,0.009761771,-0.9630911,47.0,0.05,0.04,-0.04,-0.12,0.0,0.0,0.01,-1.761051,-9.0,16.47621,19.0,2.189435,1.0,-4.208279,-4.208279,1487.0,1163.0,1163.0,1163.0,80.82046,-3.417267,0.02990348,339.38,0.0,0.0,0.0,0.0
56,1100660,5.02124946876328,-0.0002264804,0.0003180999,0.2043655,0.1889417,48.34072,0.129657,-9.842841,52.25,102.857142857143,332.142857142857,100.428571428571,-375.857142857143,4.29463314285714,4.71428571428571,4.71428571428571,0.0,0.0,0.07,0.159277428571429,0.010871888,-0.959408871428571,47.0,0.05,0.04,-0.04,-0.105714285714286,0.0,0.0,0.01,-3.34129657142857,-5.14285714285714,6.32143857142857,12.4285714285714,4.91298714285714,1.0,-7.03855342857143,-7.03855342857143,1487.0,1168.28571428571,1168.28571428571,1168.28571428571,80.8676028571429,-3.44570785714286,0.207543554285714,339.381428571429,0.0,0.0,0.0,0.0
57,1100680,5.02209944751381,0.003088285,0.0006428176,0.2487066,0.0911134,48.34072,0.1869419,-9.814195,52.125,109.142857142857,331.857142857143,100.571428571429,-376.142857142857,4.30879771428571,4.57142857142857,4.57142857142857,0.0,0.0,0.07,0.167058557142857,0.011982005,-0.955726642857143,47.0,0.05,0.04,-0.04,-0.0914285714285714,0.0,0.0,0.01,-4.92154214285714,-1.28571428571429,-3.83333285714286,5.85714285714286,7.63653928571429,1.0,-9.86882785714286,-9.86882785714286,1487.0,1173.57142857143,1173.57142857143,1173.57142857143,80.9147457142857,-3.47414871428571,0.385183628571429,339.382857142857,0.0,0.0,0.0,0.0
58,1100700,5.02294942626434,0.009204643,-0.008414954,0.1418837,0.1791691,48.34072,0.08812579,-10.00561,52.75,115.428571428571,331.571428571429,100.714285714286,-376.428571428571,4.32296228571429,4.42857142857143,4.42857142857143,0.0,0.0,0.07,0.174839685714286,0.013092122,-0.952044414285714,47.0,0.05,0.04,-0.04,-0.0771428571428571,0.0,0.0,0.01,-6.50178771428571,2.57142857142857,-13.9881042857143,-0.714285714285715,10.3600914285714,1.0,-12.6991022857143,-12.6991022857143,1487.0,1178.85714285714,1178.85714285714,1178.85714285714,80.9618885714286,-3.50258957142857,0.562823702857143,339.384285714286,0.0,0.0,0.0,0.0
59,1100720,5.02379940501487,-0.009418924,-8.325223e-06,0.2384633,0.2751057,48.34072,0.1317585,-9.591404,52.25,121.714285714286,331.285714285714,100.857142857143,-376.714285714286,4.33712685714286,4.28571428571429,4.28571428571429,0.0,0.0,0.07,0.182620814285714,0.014202239,-0.948362185714286,47.0,0.05,0.04,-0.04,-0.0628571428571429,0.0,0.0,0.01,-8.08203328571429,6.42857142857143,-24.1428757142857,-7.28571428571428,13.0836435714286,1.0,-15.5293767142857,-15.5293767142857,1487.0,1184.14285714286,1184.14285714286,1184.14285714286,81.0090314285714,-3.53103042857143,0.740463777142857,339.385714285714,0.0,0.0,0.0,0.0
60,1100735,5.02464938376541,-0.0087921166666666,-0.0031040348153333,0.218196233333333,0.230514066666667,48.34072,0.09191045,-9.57686766666667,52.2083333333333,128.0,331.0,101.0,-377.0,4.35129142857143,4.14285714285714,4.14285714285714,0.0,0.0,0.07,0.190401942857143,0.015312356,-0.944679957142857,47.0,0.05,0.04,-0.04,-0.0485714285714286,0.0,0.0,0.01,-9.66227885714286,10.2857142857143,-34.2976471428571,-13.8571428571429,15.8071957142857,1.0,-18.3596511428571,-18.3596511428571,1487.0,1189.42857142857,1189.42857142857,1189.42857142857,81.0561742857143,-3.55947128571429,0.918103851428571,339.387142857143,0.0,0.0,0.0,0.0
61,1100740,5.02549936251594,-0.0081653093333333,-0.0061997444076666,0.197929166666667,0.185922433333333,48.34072,0.0520624,-9.56233133333333,52.1666666666667,128.0,330.222222222222,101.222222222222,-377.222222222222,4.365456,4.0,4.0,0.0,0.0,0.07,0.198183071428571,0.016422473,-0.940997728571428,47.0,0.05,0.04,-0.04,-0.0342857142857143,0.0,0.0,0.01,-11.2425244285714,14.1428571428571,-44.4524185714286,-20.4285714285714,18.5307478571429,1.0,-21.1899255714286,-21.1899255714286,1487.0,1194.71428571429,1194.71428571429,1194.71428571429,81.1033171428571,-3.58791214285714,1.09574392571429,339.388571428571,0.0,0.0,0.0,0.0
62,1100742,5.02634934126647,-0.007538502,-0.009295454,0.1776621,0.1413308,48.34072,0.01221435,-9.547795,52.125,128.0,329.444444444444,101.444444444444,-377.444444444444,4.34617633333333,4.11111111111111,4.11111111111111,0.0,0.0,0.07,0.2059642,0.01753259,-0.9373155,47.0,0.05,0.04,-0.04,-0.02,0.0,0.0,0.01,-12.82277,18.0,-54.60719,-27.0,21.2543,1.0,-24.0202,-24.0202,1487.0,1200.0,1200.0,1200.0,81.15046,-3.616353,1.273384,339.39,0.0,0.0,0.0,0.0
63,1100756,5.027199320017,-0.0014544385,-0.0094149415,0.1765328,0.1604104,48.34072,0.012336165,-9.6682725,52.125,128.0,328.666666666667,101.666666666667,-377.666666666667,4.32689666666667,4.22222222222222,4.22222222222222,0.0,0.0,0.0688888888888889,0.212016933333333,0.0188884244444444,-0.933845222222222,47.0,0.0544444444444444,0.0355555555555556,-0.04,-0.0388888888888889,-0.222222222222222,0.222222222222222,0.011,-9.83018,18.5,-44.805392,-28.6,19.7283294,0.3,-18.469853,-18.469853,1487.0,1200.0,1200.0,1200.0,81.195977,-3.5916612,1.3185709,339.391,0.0,0.0,0.0,0.0
64,1100762,5.02804929876753,0.004629625,-0.009534429,0.1754035,0.17949,48.34072,0.01245798,-9.78875,52.125,128.0,327.888888888889,101.888888888889,-377.888888888889,4.307617,4.33333333333333,4.33333333333333,0.0,0.0,0.0677777777777778,0.218069666666667,0.0202442588888889,-0.930374944444444,47.0,0.0588888888888889,0.0311111111111111,-0.04,-0.0577777777777778,-0.444444444444444,0.444444444444444,0.012,-6.83759,19.0,-35.003594,-30.2,18.2023588,-0.4,-12.919506,-12.919506,1487.0,1200.0,1200.0,1200.0,81.241494,-3.5669694,1.3637578,339.392,0.0,0.0,0.0,0.0
65,1100781,5.02889927751806,-0.0005562073,0.004445654,0.2374044,0.1323423,48.34072,0.09566983,-9.8805,52.125,128.0,327.111111111111,102.111111111111,-378.111111111111,4.28833733333333,4.44444444444444,4.44444444444444,0.0,0.0,0.0666666666666667,0.2241224,0.0216000933333333,-0.926904666666667,47.0,0.0633333333333333,0.0266666666666667,-0.04,-0.0766666666666667,-0.666666666666667,0.666666666666667,0.013,-3.845,19.5,-25.201796,-31.8,16.6763882,-1.1,-7.369159,-7.369159,1487.0,1200.0,1200.0,1200.0,81.287011,-3.5422776,1.4089447,339.393,0.0,0.0,0.0,0.0
66,1100802,5.02974925626859,-0.008601521,-0.0002035483,0.2399461,0.1823996,48.38504,-0.03328272,-9.401325,53.125,128.0,326.333333333333,102.333333333333,-378.333333333333,4.26905766666667,4.55555555555556,4.55555555555556,0.0,0.0,0.0655555555555556,0.230175133333333,0.0229559277777778,-0.923434388888889,47.0,0.0677777777777778,0.0222222222222222,-0.04,-0.0955555555555556,-0.888888888888889,0.888888888888889,0.014,-0.852410000000001,20.0,-15.399998,-33.4,15.1504176,-1.8,-1.818812,-1.818812,1487.0,1200.0,1200.0,1200.0,81.332528,-3.5175858,1.4541316,339.394,0.0,0.0,0.0,0.0
67,1100822,5.03059923501912,-0.001821291,-0.006800671,0.1603471,0.2157887,48.38504,0.0767386,-9.905539,52.25,128.0,325.555555555556,102.555555555556,-378.555555555556,4.249778,4.66666666666667,4.66666666666667,0.0,0.0,0.0644444444444444,0.236227866666667,0.0243117622222222,-0.919964111111111,47.0,0.0722222222222222,0.0177777777777778,-0.04,-0.114444444444444,-1.11111111111111,1.11111111111111,0.015,2.14018,20.5,-5.59820000000001,-35.0,13.624447,-2.5,3.731535,3.731535,1487.0,1200.0,1200.0,1200.0,81.378045,-3.492894,1.4993185,339.395,0.0,0.0,0.0,0.0
68,1100836,5.03144921376966,-0.0011246702,-0.0035495398,0.16447786,0.20901182,48.38504,0.079259988,-9.9584532,52.25,128.0,324.777777777778,102.777777777778,-378.777777777778,4.23049833333333,4.77777777777778,4.77777777777778,0.0,0.0,0.0633333333333333,0.2422806,0.0256675966666667,-0.916493833333333,47.0,0.0766666666666667,0.0133333333333333,-0.04,-0.133333333333333,-1.33333333333333,1.33333333333333,0.016,5.13277,21.0,4.203598,-36.6,12.0984764,-3.2,9.281882,9.281882,1487.0,1200.0,1200.0,1200.0,81.423562,-3.4682022,1.5445054,339.396,0.0,0.0,0.0,0.0
69,1100837,5.03229919252019,-0.0004280494,-0.0002984086,0.16860862,0.20223494,48.38504,0.081781376,-10.0113674,52.25,128.0,324.0,103.0,-379.0,4.21121866666667,4.88888888888889,4.88888888888889,0.0,0.0,0.0622222222222222,0.248333333333333,0.0270234311111111,-0.913023555555555,47.0,0.0811111111111111,0.0088888888888888,-0.04,-0.152222222222222,-1.55555555555556,1.55555555555556,0.017,8.12536,21.5,14.005396,-38.2,10.5725058,-3.9,14.832229,14.832229,1487.0,1200.0,1200.0,1200.0,81.469079,-3.4435104,1.5896923,339.397,0.0,0.0,0.0,0.0
70,1100842,5.03314917127072,0.0002685714,0.0029527226,0.17273938,0.19545806,48.38504,0.084302764,-10.0642816,52.25,128.0,324.625,102.75,-378.625,4.191939,5.0,5.0,0.0,0.0,0.0611111111111111,0.254386066666667,0.0283792655555556,-0.909553277777778,47.0,0.0855555555555556,0.0044444444444444,-0.04,-0.171111111111111,-1.77777777777778,1.77777777777778,0.018,11.11795,22.0,23.807194,-39.8,9.0465352,-4.6,20.382576,20.382576,1487.0,1200.0,1200.0,1200.0,81.514596,-3.4188186,1.6348792,339.398,0.0,0.0,0.0,0.0
71,1100843,5.03399915002125,0.0009651922,0.0062038538,0.17687014,0.18868118,48.38504,0.086824152,-10.1171958,52.25,128.0,325.25,102.5,-378.25,4.1640525,4.875,4.875,0.0,0.0,0.06,0.2604388,0.0297351,-0.906083,47.0,0.09,0.0,-0.04,-0.19,-2.0,2.0,0.019,14.11054,22.5,33.608992,-41.4,7.5205646,-5.3,25.932923,25.932923,1487.0,1200.0,1200.0,1200.0,81.560113,-3.3941268,1.6800661,339.399,0.0,0.0,0.0,0.0
72,1100844,5.03484912877178,0.001661813,0.009454985,0.1810009,0.1819043,48.38504,0.08934554,-10.17011,52.25,128.0,325.875,102.25,-377.875,4.136166,4.75,4.75,0.0,0.0,0.06,0.267125375,0.03106462375,-0.901464425,47.0,0.09,0.0,-0.04,-0.21875,-1.75,1.75,0.02,17.10313,23.0,43.41079,-43.0,5.994594,-6.0,31.48327,31.48327,1487.0,1200.0,1200.0,1200.0,81.60563,-3.369435,1.725253,339.4,0.0,0.0,0.0,0.0
73,1100863,5.03569910752231,-0.001597267,0.004678142,0.2291799,0.2530313,48.2964,0.09532098,-9.526876,52.25,128.0,326.5,102.0,-377.5,4.1082795,4.625,4.625,0.0,0.0,0.06,0.27381195,0.0323941475,-0.89684585,47.0,0.09,0.0,-0.04,-0.2475,-1.5,1.5,0.02,10.60949375,18.5,31.92677375,-36.75,3.84288225,-5.25,25.07651,25.07651,1487.0,1200.0,1200.0,1200.0,81.62302875,-3.382918,1.637657375,339.4,0.0,0.0,0.0,0.0
74,1100882,5.03654908627284,-0.007629303,-0.008615346,0.1223544,0.1998108,48.25208,-0.04600564,-9.721947,52.5,128.0,327.125,101.75,-377.125,4.080393,4.5,4.5,0.0,0.0,0.06,0.280498525,0.03372367125,-0.892227275,47.0,0.09,0.0,-0.04,-0.27625,-1.25,1.25,0.02,4.1158575,14.0,20.4427575,-30.5,1.6911705,-4.5,18.66975,18.66975,1487.0,1200.0,1200.0,1200.0,81.6404275,-3.396401,1.55006175,339.4,0.0,0.0,0.0,0.0
75,1100903,5.03739906502337,0.00447594,0.001609677,0.1202605,0.1423282,48.42936,-0.07411844,-10.07963,52.0,128.0,327.75,101.5,-376.75,4.0525065,4.375,4.375,0.0,0.0,0.06,0.2871851,0.035053195,-0.8876087,47.0,0.09,0.0,-0.04,-0.305,-1.0,1.0,0.02,-2.37777875,9.5,8.95874125,-24.25,-0.460541249999999,-3.75,12.26299,12.26299,1487.0,1200.0,1200.0,1200.0,81.65782625,-3.409884,1.462466125,339.4,0.0,0.0,0.0,0.0
76,1100922,5.03824904377391,0.002059453,0.008976162,0.2226099,0.1945239,48.34072,0.129414,-9.831718,52.125,128.0,328.375,101.25,-376.375,4.02462,4.25,4.25,0.0,0.0,0.06,0.293871675,0.03638271875,-0.882990125,47.0,0.09,0.0,-0.04,-0.33375,-0.75,0.75,0.02,-8.871415,5.0,-2.525275,-18.0,-2.612253,-3.0,5.85623,5.85623,1487.0,1200.0,1200.0,1200.0,81.675225,-3.423367,1.3748705,339.4,0.0,0.0,0.0,0.0
77,1100938,5.03909902252444,0.000132411,0.004084774,0.222478325,0.204067825,48.3518,0.11579412,-9.80560275,52.125,128.0,329.0,101.0,-376.0,3.9967335,4.125,4.125,0.0,0.0,0.06,0.30055825,0.0377122425,-0.87837155,47.0,0.09,0.0,-0.04,-0.3625,-0.5,0.5,0.02,-15.36505125,0.5,-14.00929125,-11.75,-4.76396475,-2.25,-0.550529999999998,-0.550529999999998,1487.0,1200.0,1200.0,1200.0,81.69262375,-3.43685,1.287274875,339.4,0.0,0.0,0.0,0.0
78,1100943,5.03994900127497,-0.001794631,-0.000806614,0.22234675,0.21361175,48.36288,0.10217424,-9.7794875,52.125,128.0,329.222222222222,101.111111111111,-376.111111111111,3.968847,4.0,4.0,0.0,0.0,0.06,0.307244825,0.03904176625,-0.873752975,47.0,0.09,0.0,-0.04,-0.39125,-0.25,0.25,0.02,-21.8586875,-4.0,-25.4933075,-5.5,-6.9156765,-1.5,-6.95729,-6.95729,1487.0,1200.0,1200.0,1200.0,81.7100225,-3.450333,1.19967925,339.4,0.0,0.0,0.0,0.0
79,1100944,5.0407989800255,-0.003721673,-0.005698002,0.222215175,0.223155675,48.37396,0.08855436,-9.75337225,52.125,128.0,329.444444444444,101.222222222222,-376.222222222222,4.017199,3.88888888888889,3.88888888888889,0.0,0.0,0.06,0.3139314,0.04037129,-0.8691344,47.0,0.09,0.0,-0.04,-0.42,0.0,0.0,0.02,-28.35232375,-8.5,-36.97732375,0.75,-9.06738825,-0.75,-13.36405,-13.36405,1487.0,1200.0,1200.0,1200.0,81.72742125,-3.463816,1.112083625,339.4,0.0,0.0,0.0,0.0
80,1100945,5.04164895877603,-0.005648715,-0.01058939,0.2220836,0.2326996,48.38504,0.07493448,-9.727257,52.125,128.0,329.666666666667,101.333333333333,-376.333333333333,4.065551,3.77777777777778,3.77777777777778,0.0,0.0,0.0588888888888889,0.319756611111111,0.04123507,-0.864935833333333,47.0,0.1,0.0133333333333333,-0.0455555555555556,-0.371111111111111,-0.111111111111111,0.0,0.0222222222222222,-34.84596,-13.0,-48.46134,7.0,-11.2191,0.0,-19.77081,-19.77081,1487.0,1200.0,1200.0,1200.0,81.74482,-3.477299,1.024488,339.4,0.0,0.0,0.0,0.0
81,1100964,5.04249893752656,-0.002498781,-0.01070586,0.1344423,0.1547791,48.42936,-0.02492556,-10.00045,52.75,128.0,329.888888888889,101.444444444444,-376.444444444444,4.113903,3.66666666666667,3.66666666666667,0.0,0.0,0.0577777777777778,0.325581822222222,0.04209885,-0.860737266666667,47.0,0.11,0.0266666666666667,-0.0511111111111111,-0.322222222222222,-0.222222222222222,0.0,0.0244444444444444,-30.50091944875,-11.25,-38.7929675,-4.125,-7.5114625,0.25,-14.77587,-14.77587,1487.0,1200.0,1200.0,1200.0,81.73293,-3.493223375,0.9891023,339.4,0.0,0.0,0.0,0.0
82,1100979,5.04334891627709,0.001020996,0.00262754,0.17663865,0.1806706,48.38504,0.033826735,-10.01144,52.6875,128.0,330.111111111111,101.555555555556,-376.555555555556,4.162255,3.55555555555556,3.55555555555556,0.0,0.0,0.0566666666666667,0.331407033333333,0.04296263,-0.8565387,47.0,0.12,0.04,-0.0566666666666667,-0.273333333333333,-0.333333333333333,0.0,0.0266666666666667,-26.1558788975,-9.5,-29.124595,-15.25,-3.803825,0.5,-9.78093,-9.78093,1487.0,1200.0,1200.0,1200.0,81.72104,-3.50914775,0.9537166,339.4,0.0,0.0,0.0,0.0
83,1100984,5.04419889502762,0.004540773,0.01596094,0.218835,0.2065621,48.34072,0.09257903,-10.02243,52.625,128.0,330.333333333333,101.666666666667,-376.666666666667,4.210607,3.44444444444444,3.44444444444444,0.0,0.0,0.0555555555555556,0.337232244444444,0.04382641,-0.852340133333333,47.0,0.13,0.0533333333333333,-0.0622222222222222,-0.224444444444444,-0.444444444444444,0.0,0.0288888888888889,-21.81083834625,-7.75,-19.4562225,-26.375,-0.096187500000001,0.75,-4.78599,-4.78599,1487.0,1200.0,1200.0,1200.0,81.70915,-3.525072125,0.9183309,339.4,0.0,0.0,0.0,0.0
84,1101004,5.04504887377816,-0.0008094695,-0.0001463189,0.265063,0.2110205,48.34072,0.1202092,-9.483374,52.0,128.0,330.555555555556,101.777777777778,-376.777777777778,4.258959,3.33333333333333,3.33333333333333,0.0,0.0,0.0544444444444444,0.343057455555556,0.04469019,-0.848141566666667,47.0,0.14,0.0666666666666667,-0.0677777777777778,-0.175555555555556,-0.555555555555556,0.0,0.0311111111111111,-17.465797795,-6.0,-9.78785,-37.5,3.61145,1.0,0.208949999999998,0.208949999999998,1487.0,1200.0,1200.0,1200.0,81.69726,-3.5409965,0.8829452,339.4,0.0,0.0,0.0,0.0
85,1101024,5.04589885252869,-0.002410893,-0.0124842,0.170246,0.2609371,48.38504,0.1132767,-9.635719,52.75,128.0,330.777777777778,101.888888888889,-376.888888888889,4.307311,3.22222222222222,3.22222222222222,0.0,0.0,0.0533333333333333,0.348882666666667,0.04555397,-0.843943,47.0,0.15,0.08,-0.0733333333333333,-0.126666666666667,-0.666666666666667,0.0,0.0333333333333333,-13.12075724375,-4.25,-0.119477499999995,-48.625,7.3190875,1.25,5.20389,5.20389,1487.0,1200.0,1200.0,1200.0,81.68537,-3.556920875,0.8475595,339.4,0.0,0.0,0.0,0.0
86,1101039,5.04674883127922,-0.0013695201333333,-0.0052794006666666,0.155503966666667,0.234213,48.3702666666667,0.0634267033333333,-9.74965733333333,52.5833333333333,128.0,331.0,102.0,-377.0,4.355663,3.11111111111111,3.11111111111111,0.0,0.0,0.0522222222222222,0.354707877777778,0.04641775,-0.839744433333333,47.0,0.16,0.0933333333333333,-0.0788888888888889,-0.0777777777777777,-0.777777777777778,0.0,0.0355555555555556,-8.7757166925,-2.5,9.548895,-59.75,11.026725,1.5,10.19883,10.19883,1487.0,1200.0,1200.0,1200.0,81.67348,-3.57284525,0.8121738,339.4,0.0,0.0,0.0,0.0
87,1101044,5.04759881002975,-0.0003281472666666,0.0019253986666666,0.140761933333333,0.2074889,48.3554933333333,0.0135767066666667,-9.86359566666667,52.4166666666667,128.0,330.857142857143,102.0,-376.857142857143,4.404015,3.0,3.0,0.0,0.0,0.0511111111111111,0.360533088888889,0.04728153,-0.835545866666667,47.0,0.17,0.106666666666667,-0.0844444444444444,-0.0288888888888889,-0.888888888888889,0.0,0.0377777777777778,-4.43067614125,-0.75,19.2172675,-70.875,14.7343625,1.75,15.19377,15.19377,1487.0,1200.0,1200.0,1200.0,81.66159,-3.588769625,0.7767881,339.4,0.0,0.0,0.0,0.0
88,1101046,5.04844878878028,0.0007132256,0.009130198,0.1260199,0.1807648,48.34072,-0.03627329,-9.977534,52.25,128.0,330.714285714286,102.0,-376.714285714286,4.29423928571429,3.0,3.0,0.0,0.0,0.05,0.3663583,0.04814531,-0.8313473,47.0,0.18,0.12,-0.09,0.02,-1.0,0.0,0.04,-0.08563559,1.0,28.88564,-82.0,18.442,2.0,20.18871,20.18871,1487.0,1200.0,1200.0,1200.0,81.6497,-3.604694,0.7414024,339.4,0.0,0.0,0.0,0.0
89,1101065,5.04929876753081,0.0006321938,0.01224196,0.269221,0.109656,48.34072,0.2141794,-9.734408,51.875,128.0,330.571428571429,102.0,-376.571428571429,4.18446357142857,3.0,3.0,0.0,0.0,0.05,0.373307271428571,0.0485524757142857,-0.825301685714286,47.0,0.18,0.12,-0.09,-0.0871428571428571,-1.0,0.0,0.04,-0.604249077142857,-1.42857142857143,21.76393,-57.5714285714286,19.72173,1.57142857142857,12.7078985714286,12.7078985714286,1487.0,1200.0,1200.0,1200.0,81.5978714285714,-3.63289914285714,0.7196432,339.4,0.0,0.0,0.0,0.0
90,1101085,5.05014874628134,-0.00557072,-0.01187913,0.215706,0.2153338,48.2964,0.014152,-9.545849,51.875,128.0,330.428571428571,102.0,-376.428571428571,4.07468785714286,3.0,3.0,0.0,0.0,0.05,0.380256242857143,0.0489596414285714,-0.819256071428571,47.0,0.18,0.12,-0.09,-0.194285714285714,-1.0,0.0,0.04,-1.12286256428571,-3.85714285714286,14.64222,-33.1428571428571,21.00146,1.14285714285714,5.22708714285714,5.22708714285714,1487.0,1200.0,1200.0,1200.0,81.5460428571429,-3.66110428571429,0.697884,339.4,0.0,0.0,0.0,0.0
91,1101105,5.05099872503187,-0.00143245,-0.01111921,0.1181634,0.1700616,48.38504,-0.07717054,-9.984933,52.125,128.0,330.285714285714,102.0,-376.285714285714,3.96491214285714,3.0,3.0,0.0,0.0,0.05,0.387205214285714,0.0493668071428571,-0.813210457142857,47.0,0.18,0.12,-0.09,-0.301428571428571,-1.0,0.0,0.04,-1.64147605142857,-6.28571428571428,7.52051,-8.71428571428572,22.28119,0.714285714285714,-2.25372428571428,-2.25372428571428,1487.0,1200.0,1200.0,1200.0,81.4942142857143,-3.68930942857143,0.6761248,339.4,0.0,0.0,0.0,0.0
92,1101125,5.05184870378241,0.005164313,0.02118007,0.1609253,0.1734918,48.25208,-0.01729746,-9.96113,52.875,128.0,330.142857142857,102.0,-376.142857142857,3.85513642857143,3.0,3.0,0.0,0.0,0.05,0.394154185714286,0.0497739728571429,-0.807164842857143,47.0,0.18,0.12,-0.09,-0.408571428571429,-1.0,0.0,0.04,-2.16008953857143,-8.71428571428571,0.398800000000001,15.7142857142857,23.56092,0.285714285714286,-9.73453571428571,-9.73453571428571,1487.0,1200.0,1200.0,1200.0,81.4423857142857,-3.71751457142857,0.6543656,339.4,0.0,0.0,0.0,0.0
93,1101140,5.05269868253294,0.0039421396666666,0.01199152,0.193450133333333,0.189668433333333,48.2964,0.0351491933333333,-9.82658066666667,52.7083333333333,128.0,330.0,102.0,-376.0,3.74536071428571,3.0,3.0,0.0,0.0,0.05,0.401103157142857,0.0501811385714286,-0.801119228571429,47.0,0.18,0.12,-0.09,-0.515714285714286,-1.0,0.0,0.04,-2.67870302571429,-11.1428571428571,-6.72291,40.1428571428571,24.84065,-0.142857142857143,-17.2153471428571,-17.2153471428571,1487.0,1200.0,1200.0,1200.0,81.3905571428571,-3.74571971428571,0.6326064,339.4,0.0,0.0,0.0,0.0
94,1101145,5.05354866128347,0.0027199663333333,0.00280297,0.225974966666667,0.205845066666667,48.34072,0.0875958466666667,-9.69203133333333,52.5416666666667,128.0,330.222222222222,102.0,-376.111111111111,3.635585,3.0,3.0,0.0,0.0,0.05,0.408052128571429,0.0505883042857143,-0.795073614285714,47.0,0.18,0.12,-0.09,-0.622857142857143,-1.0,0.0,0.04,-3.19731651285714,-13.5714285714286,-13.84462,64.5714285714286,26.12038,-0.571428571428571,-24.6961585714286,-24.6961585714286,1487.0,1200.0,1200.0,1200.0,81.3387285714286,-3.77392485714286,0.6108472,339.4,0.0,0.0,0.0,0.0
95,1101147,5.054398640034,0.001497793,-0.00638558,0.2584998,0.2220217,48.38504,0.1400425,-9.557482,52.375,128.0,330.444444444444,102.0,-376.222222222222,3.66985977777778,2.88888888888889,2.88888888888889,0.0,0.0,0.05,0.4150011,0.05099547,-0.789028,47.0,0.18,0.12,-0.09,-0.73,-1.0,0.0,0.04,-3.71593,-16.0,-20.96633,89.0,27.40011,-1.0,-32.17697,-32.17697,1487.0,1200.0,1200.0,1200.0,81.2869,-3.80213,0.589088,339.4,0.0,0.0,0.0,0.0
96,1101161,5.05524861878453,0.000197219,-0.01272573,0.21094095,0.22163035,48.38504,0.12145155,-9.708942,52.3125,128.0,330.666666666667,102.0,-376.333333333333,3.70413455555556,2.77777777777778,2.77777777777778,0.0,0.0,0.0511111111111111,0.419691933333333,0.0520577888888889,-0.784565422222222,46.8888888888889,0.195555555555556,0.104444444444444,-0.0877777777777778,-0.695555555555555,-1.0,0.0,0.0422222222222222,-1.31888,-13.7777777777778,-26.9418733333333,72.0,22.7474033333333,-0.555555555555556,-24.4430211111111,-24.4430211111111,1487.0,1200.0,1200.0,1200.0,81.3346633333333,-3.81204666666667,0.581090888888889,339.4,0.0,0.0,0.0,0.0
97,1101166,5.05609859753506,-0.001103355,-0.01906588,0.1633821,0.221239,48.38504,0.1028606,-9.860402,52.25,128.0,330.888888888889,102.0,-376.444444444444,3.73840933333333,2.66666666666667,2.66666666666667,0.0,0.0,0.0522222222222222,0.424382766666667,0.0531201077777778,-0.780102844444444,46.7777777777778,0.211111111111111,0.0888888888888889,-0.0855555555555556,-0.661111111111111,-1.0,0.0,0.0444444444444444,1.07817,-11.5555555555556,-32.9174166666667,55.0,18.0946966666667,-0.111111111111111,-16.7090722222222,-16.7090722222222,1487.0,1200.0,1200.0,1200.0,81.3824266666667,-3.82196333333333,0.573093777777778,339.4,0.0,0.0,0.0,0.0
98,1101186,5.05694857628559,0.001614285,0.0160259,0.1136443,0.1837307,48.38504,-0.0261942,-10.27715,52.125,128.0,331.111111111111,102.0,-376.555555555556,3.77268411111111,2.55555555555556,2.55555555555556,0.0,0.0,0.0533333333333333,0.4290736,0.0541824266666667,-0.775640266666667,46.6666666666667,0.226666666666667,0.0733333333333333,-0.0833333333333333,-0.626666666666667,-1.0,0.0,0.0466666666666667,3.47522,-9.33333333333333,-38.89296,38.0,13.44199,0.333333333333333,-8.97512333333334,-8.97512333333334,1487.0,1200.0,1200.0,1200.0,81.43019,-3.83188,0.565096666666667,339.4,0.0,0.0,0.0,0.0
99,1101206,5.05779855503612,0.0009733415,0.009305092,0.2886319,0.1443605,48.38504,0.1510134,-9.481679,52.125,128.0,331.333333333333,102.0,-376.666666666667,3.80695888888889,2.44444444444444,2.44444444444444,0.0,0.0,0.0544444444444444,0.433764433333333,0.0552447455555556,-0.771177688888889,46.5555555555556,0.242222222222222,0.0577777777777778,-0.0811111111111111,-0.592222222222222,-1.0,0.0,0.0488888888888889,5.87227,-7.11111111111111,-44.8685033333333,21.0,8.78928333333333,0.777777777777778,-1.24117444444445,-1.24117444444445,1487.0,1200.0,1200.0,1200.0,81.4779533333333,-3.84179666666667,0.557099555555555,339.4,0.0,0.0,0.0,0.0
100,1101226,5.05864853378666,-0.002788128,-0.0174949,0.2420587,0.2871214,48.34072,0.07935056,-9.736981,53.0,128.0,331.555555555556,102.0,-376.777777777778,3.84123366666667,2.33333333333333,2.33333333333333,0.0,0.0,0.0555555555555556,0.438455266666667,0.0563070644444444,-0.766715111111111,46.4444444444444,0.257777777777778,0.0422222222222222,-0.0788888888888889,-0.557777777777778,-1.0,0.0,0.0511111111111111,8.26932,-4.88888888888889,-50.8440466666667,4.0,4.13657666666667,1.22222222222222,6.49277444444444,6.49277444444444,1487.0,1200.0,1200.0,1200.0,81.5257166666667,-3.85171333333333,0.549102444444444,339.4,0.0,0.0,0.0,0.0
101,1101229,5.05949851253719,-0.001943580825,-0.014820637,0.21337835,0.264338825,48.34072,0.02992142,-9.85712825,52.78125,128.0,331.777777777778,102.0,-376.888888888889,3.87550844444444,2.22222222222222,2.22222222222222,0.0,0.0,0.0566666666666667,0.4431461,0.0573693833333333,-0.762252533333333,46.3333333333333,0.273333333333333,0.0266666666666667,-0.0766666666666667,-0.523333333333333,-1.0,0.0,0.0533333333333333,10.66637,-2.66666666666667,-56.81959,-13.0,-0.51613,1.66666666666667,14.2267233333333,14.2267233333333,1487.0,1200.0,1200.0,1200.0,81.57348,-3.86163,0.541105333333333,339.4,0.0,0.0,0.0,0.0
102,1101241,5.06034849128772,-0.00109903365,-0.012146374,0.184698,0.24155625,48.34072,-0.01950772,-9.9772755,52.5625,128.0,332.0,102.0,-377.0,3.90978322222222,2.11111111111111,2.11111111111111,0.0,0.0,0.0577777777777778,0.447836933333333,0.0584317022222222,-0.757789955555556,46.2222222222222,0.288888888888889,0.0111111111111111,-0.0744444444444445,-0.488888888888889,-1.0,0.0,0.0555555555555556,13.06342,-0.444444444444443,-62.7951333333333,-30.0,-5.16883666666667,2.11111111111111,21.9606722222222,21.9606722222222,1487.0,1200.0,1200.0,1200.0,81.6212433333333,-3.87154666666667,0.533108222222222,339.4,0.0,0.0,0.0,0.0
103,1101246,5.06119847003825,-0.000254486475,-0.009472111,0.15601765,0.218773675,48.34072,-0.06893686,-10.09742275,52.34375,128.0,332.142857142857,101.857142857143,-377.0,3.944058,2.0,2.0,0.0,0.0,0.0588888888888889,0.452527766666667,0.0594940211111111,-0.753327377777778,46.1111111111111,0.304444444444444,-0.0044444444444444,-0.0722222222222222,-0.454444444444444,-1.0,0.0,0.0577777777777778,15.46047,1.77777777777778,-68.7706766666667,-47.0,-9.82154333333333,2.55555555555556,29.6946211111111,29.6946211111111,1487.0,1200.0,1200.0,1200.0,81.6690066666667,-3.88146333333333,0.525111111111111,339.4,0.0,0.0,0.0,0.0
104,1101247,5.06204844878878,0.0005900607,-0.006797848,0.1273373,0.1959911,48.34072,-0.118366,-10.21757,52.125,128.0,332.285714285714,101.714285714286,-377.0,3.98104342857143,1.71428571428571,1.71428571428571,0.0,0.0,0.06,0.4572186,0.06055634,-0.7488648,46.0,0.32,-0.02,-0.07,-0.42,-1.0,0.0,0.06,17.85752,4.0,-74.74622,-64.0,-14.47425,3.0,37.42857,37.42857,1487.0,1200.0,1200.0,1200.0,81.71677,-3.89138,0.517114,339.4,0.0,0.0,0.0,0.0
105,1101267,5.06289842753931,0.001188445,0.02489879,0.2400959,0.2429928,48.34072,0.245552,-9.585378,52.25,128.0,332.428571428571,101.571428571429,-377.0,4.01802885714286,1.42857142857143,1.42857142857143,0.0,0.0,0.06,0.463406671428571,0.06142771,-0.742659842857143,46.0,0.32,-0.02,-0.07,-0.378571428571429,-0.857142857142857,0.0,0.06,15.5954951428571,0.857142857142857,-59.3985128571428,-44.7142857142857,-14.8494428571429,2.14285714285714,25.8504057142857,25.8504057142857,1487.0,1200.0,1200.0,1200.0,81.5588014285714,-3.85497128571429,0.520800771428571,339.4,0.0,0.0,0.0,0.0
106,1101287,5.06374840628984,-0.001575343,-0.01044718,0.2146403,0.1901197,48.42936,0.1600191,-9.470424,52.25,128.0,332.571428571429,101.428571428571,-377.0,4.05501428571429,1.14285714285714,1.14285714285714,0.0,0.0,0.06,0.469594742857143,0.06229908,-0.736454885714286,46.0,0.32,-0.02,-0.07,-0.337142857142857,-0.714285714285714,0.0,0.06,13.3334702857143,-2.28571428571429,-44.0508057142857,-25.4285714285714,-15.2246357142857,1.28571428571429,14.2722414285714,14.2722414285714,1487.0,1200.0,1200.0,1200.0,81.4008328571429,-3.81856257142857,0.524487542857143,339.4,0.0,0.0,0.0,0.0
107,1101307,5.06459838504037,-0.0034197,-0.02103549,0.09901103,0.2116855,48.38504,-0.03532891,-9.882812,52.25,128.0,332.714285714286,101.285714285714,-377.0,4.09199971428571,0.857142857142857,0.857142857142857,0.0,0.0,0.06,0.475782814285714,0.06317045,-0.730249928571429,46.0,0.32,-0.02,-0.07,-0.295714285714286,-0.571428571428571,0.0,0.06,11.0714454285714,-5.42857142857143,-28.7030985714286,-6.14285714285715,-15.5998285714286,0.428571428571429,2.69407714285715,2.69407714285715,1487.0,1200.0,1200.0,1200.0,81.2428642857143,-3.78215385714286,0.528174314285714,339.4,0.0,0.0,0.0,0.0
108,1101327,5.0654483637909,-0.001614228,0.01106114,0.1252562,0.1525622,48.38504,0.003623997,-9.765437,53.125,128.0,332.857142857143,101.142857142857,-377.0,4.12898514285714,0.571428571428572,0.571428571428572,0.0,0.0,0.06,0.481970885714286,0.06404182,-0.724044971428571,46.0,0.32,-0.02,-0.07,-0.254285714285714,-0.428571428571429,0.0,0.06,8.80942057142857,-8.57142857142857,-13.3553914285714,13.1428571428571,-15.9750214285714,-0.428571428571428,-8.88408714285714,-8.88408714285714,1487.0,1200.0,1200.0,1200.0,81.0848957142857,-3.74574514285714,0.531861085714286,339.4,0.0,0.0,0.0,0.0
109,1101342,5.06629834254144,-0.000705013,0.0070795680333333,0.159399066666667,0.1646405,48.38504,0.0173797946666667,-9.63277066666667,52.7916666666667,128.0,333.0,101.0,-377.0,4.16597057142857,0.285714285714286,0.285714285714286,0.0,0.0,0.06,0.488158957142857,0.06491319,-0.717840014285714,46.0,0.32,-0.02,-0.07,-0.212857142857143,-0.285714285714286,0.0,0.06,6.54739571428571,-11.7142857142857,1.99231571428572,32.4285714285714,-16.3502142857143,-1.28571428571429,-20.4622514285714,-20.4622514285714,1487.0,1200.0,1200.0,1200.0,80.9269271428571,-3.70933642857143,0.535547857142857,339.4,0.0,0.0,0.0,0.0
110,1101346,5.06714832129197,0.000204202,0.0030979960666666,0.193541933333333,0.1767188,48.38504,0.0311355923333333,-9.50010433333333,52.4583333333333,128.0,332.875,100.875,-376.75,4.202956,0.0,0.0,0.0,0.0,0.06,0.494347028571429,0.06578456,-0.711635057142857,46.0,0.32,-0.02,-0.07,-0.171428571428571,-0.142857142857143,0.0,0.06,4.28537085714286,-14.8571428571429,17.3400228571429,51.7142857142857,-16.7254071428571,-2.14285714285714,-32.0404157142857,-32.0404157142857,1487.0,1200.0,1200.0,1200.0,80.7689585714286,-3.67292771428571,0.539234628571429,339.4,0.0,0.0,0.0,0.0
111,1101348,5.0679983000425,0.001113417,-0.0008835759,0.2276848,0.1887971,48.38504,0.04489139,-9.367438,52.125,128.0,332.75,100.75,-376.5,4.173692375,0.125,0.125,0.0,0.0,0.06,0.5005351,0.06665593,-0.7054301,46.0,0.32,-0.02,-0.07,-0.13,0.0,0.0,0.06,2.023346,-18.0,32.68773,71.0,-17.1006,-3.0,-43.61858,-43.61858,1487.0,1200.0,1200.0,1200.0,80.61099,-3.636519,0.5429214,339.4,0.0,0.0,0.0,0.0
112,1101362,5.06884827879303,0.00065458185,-0.00775560795,0.2299931,0.18922385,48.4072,0.064916885,-9.6235665,52.375,128.0,332.625,100.625,-376.25,4.14442875,0.25,0.25,0.0,0.0,0.05875,0.5049293125,0.067536575,-0.7004864875,46.0,0.3325,-0.00875,-0.06625,-0.1575,0.0,-0.125,0.0625,1.194689375,-13.875,17.84580375,57.75,-15.846673125,-2.625,-33.854565,-33.854565,1487.0,1200.0,1200.0,1200.0,80.62468875,-3.6507215,0.5382125875,339.4,0.0,0.0,0.0,0.0
113,1101367,5.06969825754356,0.0001957467,-0.01462764,0.2323014,0.1896506,48.42936,0.08494238,-9.879695,52.625,128.0,332.5,100.5,-376.0,4.115165125,0.375,0.375,0.0,0.0,0.0575,0.509323525,0.06841722,-0.695542875,46.0,0.345,0.0025,-0.0625,-0.185,0.0,-0.25,0.065,0.36603275,-9.75,3.0038775,44.5,-14.59274625,-2.25,-24.09055,-24.09055,1487.0,1200.0,1200.0,1200.0,80.6383875,-3.664924,0.533503775,339.4,0.0,0.0,0.0,0.0
114,1101387,5.07054823629409,0.002965836,0.005992795,0.1395847,0.105725,48.34072,-0.06633205,-10.2537,52.25,128.0,332.375,100.375,-375.75,4.0859015,0.5,0.5,0.0,0.0,0.05625,0.5137177375,0.069297865,-0.6905992625,46.0,0.3575,0.01375,-0.05875,-0.2125,0.0,-0.375,0.0675,-0.462623875,-5.625,-11.83804875,31.25,-13.338819375,-1.875,-14.326535,-14.326535,1487.0,1200.0,1200.0,1200.0,80.65208625,-3.6791265,0.5287949625,339.4,0.0,0.0,0.0,0.0
115,1101407,5.07139821504462,0.002151362,0.01716026,0.2184685,0.2131804,48.34072,0.08157225,-9.670877,52.375,128.0,332.25,100.25,-375.5,4.056637875,0.625,0.625,0.0,0.0,0.055,0.51811195,0.07017851,-0.68565565,46.0,0.37,0.025,-0.055,-0.24,0.0,-0.5,0.07,-1.2912805,-1.5,-26.679975,18.0,-12.0848925,-1.5,-4.56252,-4.56252,1487.0,1200.0,1200.0,1200.0,80.665785,-3.693329,0.52408615,339.4,0.0,0.0,0.0,0.0
116,1101427,5.07224819379516,-0.003146761,-0.006253357,0.1952061,0.1928792,48.2964,0.1211372,-9.823265,52.25,128.0,332.125,100.125,-375.25,4.02737425,0.75,0.75,0.0,0.0,0.05375,0.5225061625,0.071059155,-0.6807120375,46.0,0.3825,0.03625,-0.05125,-0.2675,0.0,-0.625,0.0725,-2.119937125,2.625,-41.52190125,4.75,-10.830965625,-1.125,5.201495,5.201495,1487.0,1200.0,1200.0,1200.0,80.67948375,-3.7075315,0.5193773375,339.4,0.0,0.0,0.0,0.0
117,1101442,5.07309817254569,-0.0022575564666666,-0.008554078,0.169424433333333,0.197092066666667,48.3111733333333,0.0496263333333333,-9.94167,52.25,128.0,332.0,100.0,-375.0,3.998110625,0.875,0.875,0.0,0.0,0.0525,0.526900375,0.0719398,-0.675768425,46.0,0.395,0.0475,-0.0475,-0.295,0.0,-0.75,0.075,-2.94859375,6.75,-56.3638275,-8.5,-9.57703875,-0.75,14.96551,14.96551,1487.0,1200.0,1200.0,1200.0,80.6931825,-3.721734,0.514668525,339.4,0.0,0.0,0.0,0.0
118,1101446,5.07394815129622,-0.0013683519333333,-0.010854799,0.143642766666667,0.201304933333333,48.3259466666667,-0.0218845333333333,-10.060075,52.25,128.0,332.125,100.125,-375.0,3.968847,1.0,1.0,0.0,0.0,0.05125,0.5312945875,0.072820445,-0.6708248125,46.0,0.4075,0.05875,-0.04375,-0.3225,0.0,-0.875,0.0775,-3.777250375,10.875,-71.20575375,-21.75,-8.323111875,-0.375,24.729525,24.729525,1487.0,1200.0,1200.0,1200.0,80.70688125,-3.7359365,0.5099597125,339.4,0.0,0.0,0.0,0.0
119,1101448,5.07479813004675,-0.0004791474,-0.01315552,0.1178611,0.2055178,48.34072,-0.0933954,-10.17848,52.25,128.0,332.25,100.25,-375.0,3.998110625,0.875,0.875,0.0,0.0,0.05,0.5356888,0.07370109,-0.6658812,46.0,0.42,0.07,-0.04,-0.35,0.0,-1.0,0.08,-4.605907,15.0,-86.04768,-35.0,-7.069185,0.0,34.49354,34.49354,1487.0,1200.0,1200.0,1200.0,80.72058,-3.750139,0.5052509,339.4,0.0,0.0,0.0,0.0
120,1101462,5.07564810879728,-0.0018727827,-0.0039568285,0.15755605,0.207853,48.38504,-0.013646075,-10.003367,52.25,128.0,332.375,100.375,-375.0,4.02737425,0.75,0.75,0.0,0.0,0.05,0.5405022625,0.07436720125,-0.660565075,46.0,0.42,0.07,-0.04,-0.32,0.0,-0.875,0.08,-0.835436125,13.5,-72.5657525,-23.75,-3.678168125,0.25,26.17173,26.17173,1487.0,1200.0,1200.0,1200.0,80.64117,-3.74731275,0.5078750375,339.40125,124.0,118.0,0.0,0.0
121,1101467,5.07649808754781,-0.003266418,0.005241863,0.197251,0.2101882,48.42936,0.06610325,-9.828254,52.25,128.0,332.5,100.5,-375.0,4.056637875,0.625,0.625,0.0,0.0,0.05,0.545315725,0.0750333125,-0.65524895,46.0,0.42,0.07,-0.04,-0.29,0.0,-0.75,0.08,2.93503475,12.0,-59.083825,-12.5,-0.28715125,0.5,17.84992,17.84992,1487.0,1200.0,1200.0,1200.0,80.56176,-3.7444865,0.510499175,339.4025,124.169117647059,117.948529411765,0.0,0.0
122,1101487,5.07734806629834,-0.0003769259,-0.005849195,0.2150705,0.1967102,48.2964,0.08394416,-9.550355,52.75,128.0,332.625,100.625,-375.0,4.0859015,0.5,0.5,0.0,0.0,0.05,0.5501291875,0.07569942375,-0.649932825,46.0,0.42,0.07,-0.04,-0.26,0.0,-0.625,0.08,6.705505625,10.5,-45.6018975,-1.25,3.103865625,0.75,9.52811000000001,9.52811000000001,1487.0,1200.0,1200.0,1200.0,80.48235,-3.74166025,0.5131233125,339.40375,124.338235294118,117.897058823529,0.0,0.0
123,1101507,5.07819804504887,0.0005924976,-0.006646525,0.2099206,0.2211032,48.2964,0.07309967,-9.833076,52.125,128.0,332.75,100.75,-375.0,4.115165125,0.375,0.375,0.0,0.0,0.05,0.55494265,0.076365535,-0.6446167,46.0,0.42,0.07,-0.04,-0.23,0.0,-0.5,0.08,10.4759765,9.0,-32.11997,10.0,6.4948825,1.0,1.20630000000001,1.20630000000001,1487.0,1200.0,1200.0,1200.0,80.40294,-3.738834,0.51574745,339.405,124.507352941176,117.845588235294,0.0,0.0
124,1101527,5.07904802379941,0.003141664,0.01303595,0.1576371,0.1955603,48.38504,0.0844975,-10.10662,52.375,128.0,332.875,100.875,-375.0,4.14442875,0.25,0.25,0.0,0.0,0.05,0.5597561125,0.07703164625,-0.639300575,46.0,0.42,0.07,-0.04,-0.2,0.0,-0.375,0.08,14.246447375,7.5,-18.6380425,21.25,9.885899375,1.25,-7.11550999999999,-7.11550999999999,1487.0,1200.0,1200.0,1200.0,80.32353,-3.73600775,0.5183715875,339.40625,124.676470588235,117.794117647059,0.0,0.0
125,1101542,5.07989800254994,0.003924857,0.009843093,0.168822366666667,0.1830577,48.38504,0.0986576666666667,-9.924535,52.25,128.0,333.0,101.0,-375.0,4.173692375,0.125,0.125,0.0,0.0,0.05,0.564569575,0.0776977575,-0.63398445,46.0,0.42,0.07,-0.04,-0.17,0.0,-0.25,0.08,18.01691825,6.0,-5.156115,32.5,13.27691625,1.5,-15.43732,-15.43732,1487.0,1200.0,1200.0,1200.0,80.24412,-3.7331815,0.520995725,339.4075,124.845588235294,117.742647058824,0.0,0.0
126,1101547,5.08074798130047,0.00470805,0.006650236,0.180007633333333,0.1705551,48.38504,0.112817833333333,-9.74245,52.125,128.75,332.5,101.25,-375.125,4.202956,0.0,0.0,0.0,0.0,0.05,0.5693830375,0.07836386875,-0.628668325,46.0,0.42,0.07,-0.04,-0.14,0.0,-0.125,0.08,21.787389125,4.5,8.3258125,43.75,16.667933125,1.75,-23.75913,-23.75913,1487.0,1200.0,1200.0,1200.0,80.16471,-3.73035525,0.5236198625,339.40875,125.014705882353,117.691176470588,0.0,0.0
127,1101549,5.081597960051,0.005491243,0.003457379,0.1911929,0.1580525,48.38504,0.126978,-9.560365,52.0,129.5,332.0,101.5,-375.25,4.2480565,0.0,0.0,0.0,0.0,0.05,0.5741965,0.07902998,-0.6233522,46.0,0.42,0.07,-0.04,-0.11,0.0,0.0,0.08,25.55786,3.0,21.80774,55.0,20.05895,2.0,-32.08094,-32.08094,1487.0,1200.0,1200.0,1200.0,80.0853,-3.727529,0.526244,339.41,125.183823529412,117.639705882353,0.0,0.0
128,1101563,5.08244793880153,0.001917102,-0.0006958165,0.18215905,0.2097959,48.34072,0.09461256,-9.654251,52.3125,130.25,331.5,101.75,-375.375,4.293157,0.0,0.0,0.0,0.0,0.05,0.578039025,0.07969944375,-0.618370525,45.875,0.4275,0.06375,-0.035,-0.065,-0.125,0.0,0.08125,24.34203625,3.5,10.5128625,47.125,16.687419375,1.625,-26.35571125,-26.35571125,1487.0,1201.375,1201.375,1201.375,80.0593625,-3.7406025,0.5340627375,339.41,125.352941176471,117.588235294118,0.0,0.0
129,1101568,5.08329791755206,-0.001657039,-0.004849012,0.1731252,0.2615393,48.2964,0.06224712,-9.748137,52.625,131.0,331.0,102.0,-375.5,4.3382575,0.0,0.0,0.0,0.0,0.05,0.58188155,0.0803689075,-0.61338885,45.75,0.435,0.0575,-0.03,-0.02,-0.25,0.0,0.0825,23.1262125,4.0,-0.782015000000001,39.25,13.31588875,1.25,-20.6304825,-20.6304825,1487.0,1202.75,1202.75,1202.75,80.033425,-3.753676,0.541881475,339.41,125.522058823529,117.536764705882,0.0,0.0
130,1101588,5.08414789630259,0.0003524577,-0.004397657,0.102159,0.1155383,48.38504,-0.06043886,-10.06678,52.375,131.75,330.5,102.25,-375.625,4.383358,0.0,0.0,0.0,0.0,0.05,0.585724075,0.08103837125,-0.608407175,45.625,0.4425,0.05125,-0.025,0.025,-0.375,0.0,0.08375,21.91038875,4.5,-12.0768925,31.375,9.944358125,0.875,-14.90525375,-14.90525375,1487.0,1204.125,1204.125,1204.125,80.0074875,-3.7667495,0.5497002125,339.41,125.691176470588,117.485294117647,0.0,0.0
131,1101608,5.08499787505312,-0.001306721,0.006291804,0.2147818,0.2141248,48.34072,0.1209998,-9.577126,52.125,132.5,330.0,102.5,-375.75,4.4284585,0.0,0.0,0.0,0.0,0.05,0.5895666,0.081707835,-0.6034255,45.5,0.45,0.045,-0.02,0.07,-0.5,0.0,0.085,20.694565,5.0,-23.37177,23.5,6.5728275,0.5,-9.180025,-9.180025,1487.0,1205.5,1205.5,1205.5,79.98155,-3.779823,0.55751895,339.41,125.860294117647,117.433823529412,0.0,0.0
132,1101628,5.08584785380365,-0.002125876,-0.006950754,0.1992633,0.1945974,48.34072,0.1506688,-9.689011,52.625,133.25,329.5,102.75,-375.875,4.473559,0.0,0.0,0.0,0.0,0.05,0.593409125,0.08237729875,-0.598443825,45.375,0.4575,0.03875,-0.015,0.115,-0.625,0.0,0.08625,19.47874125,5.5,-34.6666475,15.625,3.201296875,0.125,-3.45479625,-3.45479625,1487.0,1206.875,1206.875,1206.875,79.9556125,-3.7928965,0.5653376875,339.41,126.029411764706,117.382352941176,0.0,0.0
133,1101643,5.08669783255419,-0.0006471233333333,-0.0080764593333333,0.193512333333333,0.190232466666667,48.34072,0.117276046666667,-9.79752733333333,52.4583333333333,134.0,329.0,103.0,-376.0,4.5186595,0.0,0.0,0.0,0.0,0.05,0.59725165,0.0830467625,-0.59346215,45.25,0.465,0.0325,-0.01,0.16,-0.75,0.0,0.0875,18.2629175,6.0,-45.961525,7.75,-0.170233750000001,-0.25,2.2704325,2.2704325,1487.0,1208.25,1208.25,1208.25,79.929675,-3.80597,0.573156425,339.41,126.198529411765,117.330882352941,0.0,0.0
