,TimeS,MODE.ModeNum,IMU.GyrX,IMU.GyrY,IMU.AccX,IMU.AccY,IMU.Temp,IMU2.AccX,IMU2.AccZ,IMU2.Temp,CURR.Throttle,MAG.MagX,MAG.MagY,MAG.MagZ,BARO.Alt,CTUN.DCRt,CTUN.CRt,ATT.DesRoll,ATT.DesPitch,ATT.ErrRP,EKF1.VN,EKF1.VE,EKF1.PN,EKF2.Ratio,EKF3.IVN,EKF3.IVE,EKF3.IVD,EKF3.IPD,EKF3.IMY,EKF3.IMZ,EKF4.SV,RATE.RDes,RATE.ROut,RATE.PDes,RATE.POut,RATE.YDes,RATE.YOut,RATE.ADes,RATE.A,RCIN.C2,RCOU.Ch1,RCOU.Ch3,RCOU.Ch4,NTUN.DAccX,NTUN.DAccY,VIBE.VibeX,AHR2.Yaw,UBX2.magI,UBX2.magQ,PM.MaxT,label
0,129993,0.0,0.0,0.0,0.0,0.0,0.0,0.0,0.0,0.0,0.0,0.0,0.0,0.0,0.0,0.0,0.0,0.0,0.0,0.0,0.0,0.0,0.0,0.0,0.0,0.0,0.0,0.0,0.0,0.0,0.0,0.0,0.0,0.0,0.0,0.0,0.0,0.0,0.0,0.0,0.0,0.0,0.0,0.0,0.0,0.0,0.0,0.0,0.0,0.0,0.0
1,130535,5.0,0.0,0.0,0.0,0.0,0.0,0.0,0.0,0.0,0.0,0.0,0.0,0.0,0.0,0.0,0.0,0.0,0.0,0.0,0.0,0.0,0.0,0.0,0.0,0.0,0.0,0.0,0.0,0.0,0.0,0.0,0.0,0.0,0.0,0.0,0.0,0.0,0.0,0.0,0.0,0.0,0.0,0.0,0.0,0.0,0.0,0.0,0.0,0.0,0.0
2,130535,5.0,0.0,0.0,0.0,0.0,0.0,0.0,0.0,0.0,0.0,0.0,0.0,0.0,0.0,0.0,0.0,0.0,0.0,0.0,0.0,0.0,0.0,0.0,0.0,0.0,0.0,0.0,0.0,0.0,0.0,0.0,0.0,0.0,0.0,0.0,0.0,0.0,0.0,0.0,0.0,0.0,0.0,0.0,0.0,0.0,0.0,0.0,0.0,0.0,0.0
3,130535,5.0,0.0,0.0,0.0,0.0,0.0,0.0,0.0,0.0,0.0,0.0,0.0,0.0,0.0,0.0,0.0,0.0,0.0,0.0,0.0,0.0,0.0,0.0,0.0,0.0,0.0,0.0,0.0,0.0,0.0,0.0,0.0,0.0,0.0,0.0,0.0,0.0,0.0,0.0,0.0,0.0,0.0,0.0,0.0,0.0,0.0,0.0,0.0,0.0,0.0
4,130535,5.0,0.0,0.0,0.0,0.0,0.0,0.0,0.0,0.0,0.0,0.0,0.0,0.0,0.0,0.0,0.0,0.0,0.0,0.0,0.0,0.0,0.0,0.0,0.0,0.0,0.0,0.0,0.0,0.0,0.0,0.0,0.0,0.0,0.0,0.0,0.0,0.0,0.0,0.0,0.0,0.0,0.0,0.0,0.0,0.0,0.0,0.0,0.0,0.0,0.0
5,130535,5.0,0.0,0.0,0.0,0.0,0.0,0.0,0.0,0.0,0.0,0.0,0.0,0.0,0.0,0.0,0.0,0.0,0.0,0.0,0.0,0.0,0.0,0.0,0.0,0.0,0.0,0.0,0.0,0.0,0.0,0.0,0.0,0.0,0.0,0.0,0.0,0.0,0.0,0.0,0.0,0.0,0.0,0.0,0.0,0.0,0.0,0.0,0.0,0.0,0.0
6,130535,5.0,0.0,0.0,0.0,0.0,0.0,0.0,0.0,0.0,0.0,0.0,0.0,0.0,0.0,0.0,0.0,0.0,0.0,0.0,0.0,0.0,0.0,0.0,0.0,0.0,0.0,0.0,0.0,0.0,0.0,0.0,0.0,0.0,0.0,0.0,0.0,0.0,0.0,0.0,0.0,0.0,0.0,0.0,0.0,0.0,0.0,0.0,0.0,0.0,0.0
7,130535,5.0,0.0,0.0,0.0,0.0,0.0,0.0,0.0,0.0,0.0,0.0,0.0,0.0,0.0,0.0,0.0,0.0,0.0,0.0,0.0,0.0,0.0,0.0,0.0,0.0,0.0,0.0,0.0,0.0,0.0,0.0,0.0,0.0,0.0,0.0,0.0,0.0,0.0,0.0,0.0,0.0,0.0,0.0,0.0,0.0,0.0,0.0,0.0,0.0,0.0
8,130535,5.0,0.0,0.0,0.0,0.0,0.0,0.0,0.0,0.0,0.0,0.0,0.0,0.0,0.0,0.0,0.0,0.0,0.0,0.0,0.0,0.0,0.0,0.0,0.0,0.0,0.0,0.0,0.0,0.0,0.0,0.0,0.0,0.0,0.0,0.0,0.0,0.0,0.0,0.0,0.0,0.0,0.0,0.0,0.0,0.0,0.0,0.0,0.0,0.0,0.0
9,130535,5.0,0.0,0.0,0.0,0.0,0.0,0.0,0.0,0.0,0.0,0.0,0.0,0.0,0.0,0.0,0.0,0.0,0.0,0.0,0.0,0.0,0.0,0.0,0.0,0.0,0.0,0.0,0.0,0.0,0.0,0.0,0.0,0.0,0.0,0.0,0.0,0.0,0.0,0.0,0.0,0.0,0.0,0.0,0.0,0.0,0.0,0.0,0.0,0.0,0.0
10,130535,5.0,0.0,0.0,0.0,0.0,0.0,0.0,0.0,0.0,0.0,0.0,0.0,0.0,0.0,0.0,0.0,0.0,0.0,0.0,0.0,0.0,0.0,0.0,0.0,0.0,0.0,0.0,0.0,0.0,0.0,0.0,0.0,0.0,0.0,0.0,0.0,0.0,0.0,0.0,0.0,0.0,0.0,0.0,0.0,0.0,0.0,0.0,0.0,0.0,0.0
11,131169,5.0,0.0,0.0,0.0,0.0,0.0,0.0,0.0,0.0,0.0,0.0,0.0,0.0,0.0,0.0,0.0,0.0,0.0,0.0,0.0,0.0,0.0,0.0,0.0,0.0,0.0,0.0,0.0,0.0,0.0,0.0,0.0,0.0,0.0,0.0,0.0,0.0,0.0,0.0,0.0,0.0,0.0,0.0,0.0,0.0,0.0,0.0,0.0,0.0,0.0
12,131171,5.0,0.0,0.0,0.0,0.0,0.0,0.0,0.0,0.0,0.0,0.0,0.0,0.0,-1.39912,5.0,5.0,0.0,0.0,0.0,0.1521105,0.05742124,-5.692119,44.0,0.27,0.08,0.0,0.0,19.0,-17.0,0.0,0.0,0.0,0.0,0.0,0.0,0.0,0.0,0.0,0.0,0.0,0.0,0.0,0.0,0.0,0.0,0.0,0.0,0.0,0.0,0.0
13,131172,5.0,0.0,0.0,0.0,0.0,0.0,0.0,0.0,0.0,0.0,0.0,0.0,0.0,-1.43456261538462,5.0,5.0,0.0,0.0,0.0238461538461538,0.149976376923077,0.0562138346153846,-5.69224576923077,43.8461538461538,0.263076923076923,0.0738461538461539,-0.0176923076923077,0.0038461538461538,17.1538461538462,-17.0769230769231,0.04,68.57458,-191.0,91.71696,-168.0,3.617702,1.0,3.307533,3.307533,1577.0,1094.0,1094.0,1094.0,-33.4878,-6.307446,0.03100062,156.31,0.0,0.0,0.0,0.0
14,131173,5.0,0.01695995,0.006041493,0.0198542,0.3039865,37.21607,-0.03331384,-9.805977,40.0,0.0,0.0,0.0,0.0,-1.47000523076923,5.0,5.0,0.0,0.0,0.0476923076923077,0.147842253846154,0.0550064292307692,-5.69237253846154,43.6923076923077,0.256153846153846,0.0676923076923077,-0.0353846153846154,0.0076923076923076,15.3076923076923,-17.1538461538462,0.0408333333333333,63.0652333333333,-175.666666666667,84.4195313333333,-154.166666666667,3.6877405,0.916666666666667,3.59430291666667,3.59430291666667,1576.83333333333,1099.75,1099.75,1099.75,-33.5212991666667,-6.30141191666667,0.03077436,156.310833333333,0.0,0.0,0.0,0.0
15,131188,5.0,0.0110536466333333,0.0039093916,0.0174859366666667,0.289572233333333,37.21607,-0.04807954,-9.82731166666667,39.875,0.0,0.0,0.0,0.0,-1.50544784615385,5.0,5.0,0.0,0.0,0.0715384615384615,0.145708130769231,0.0537990238461538,-5.69249930769231,43.5384615384615,0.249230769230769,0.0615384615384615,-0.0530769230769231,0.0115384615384615,13.4615384615385,-17.2307692307692,0.0416666666666667,57.5558866666667,-160.333333333333,77.1221026666667,-140.333333333333,3.757779,0.833333333333333,3.88107283333333,3.88107283333333,1576.66666666667,1105.5,1105.5,1105.5,-33.5547983333333,-6.29537783333333,0.0305481,156.311666666667,0.0,0.0,0.0,0.0
16,131188,5.0,0.0051473432666666,0.0017772902,0.0151176733333333,0.275157966666667,37.21607,-0.06284524,-9.84864633333333,39.75,0.0,0.0,0.0,0.0,-1.54089046153846,5.0,5.0,0.0,0.0,0.0953846153846154,0.143574007692308,0.0525916184615385,-5.69262607692308,43.3846153846154,0.242307692307692,0.0553846153846154,-0.0707692307692308,0.0153846153846154,11.6153846153846,-17.3076923076923,0.0425,52.04654,-145.0,69.824674,-126.5,3.8278175,0.75,4.16784275,4.16784275,1576.5,1111.25,1111.25,1111.25,-33.5882975,-6.28934375,0.03032184,156.3125,0.0,0.0,0.0,0.0
17,131193,5.0,-0.0007589601,-0.0003548112,0.01274941,0.2607437,37.21607,-0.07761094,-9.869981,39.625,0.0,0.0,0.0,0.0,-1.57633307692308,5.0,5.0,0.0,0.0,0.119230769230769,0.141439884615385,0.0513842130769231,-5.69275284615385,43.2307692307692,0.235384615384615,0.0492307692307692,-0.0884615384615385,0.0192307692307692,9.76923076923077,-17.3846153846154,0.0433333333333333,46.5371933333333,-129.666666666667,62.5272453333333,-112.666666666667,3.897856,0.666666666666667,4.45461266666667,4.45461266666667,1576.33333333333,1117.0,1117.0,1117.0,-33.6217966666667,-6.28330966666667,0.03009558,156.313333333333,0.0,0.0,0.0,0.0
18,131208,5.0,-0.0005525393,-0.0006612368,0.0105901766666667,0.2591615,37.2012966666667,-0.0780970533333333,-9.821866,39.625,0.0,0.0,0.0,0.0,-1.61177569230769,5.0,5.0,0.0,0.0,0.143076923076923,0.139305761538462,0.0501768076923077,-5.69287961538462,43.0769230769231,0.228461538461538,0.0430769230769231,-0.106153846153846,0.0230769230769231,7.92307692307692,-17.4615384615385,0.0441666666666667,41.0278466666667,-114.333333333333,55.2298166666667,-98.8333333333333,3.9678945,0.583333333333333,4.74138258333333,4.74138258333333,1576.16666666667,1122.75,1122.75,1122.75,-33.6552958333333,-6.27727558333333,0.02986932,156.314166666667,128.0,138.0,0.0,0.0
19,131208,5.0,-0.0003461185,-0.0009676624,0.0084309433333333,0.2575793,37.1865233333333,-0.0785831666666667,-9.773751,39.625,0.0,0.0,0.0,0.0,-1.64721830769231,5.0,5.0,0.0,0.0,0.166923076923077,0.137171638461538,0.0489694023076923,-5.69300638461538,42.9230769230769,0.221538461538462,0.0369230769230769,-0.123846153846154,0.0269230769230769,6.07692307692308,-17.5384615384615,0.045,35.5185,-99.0,47.932388,-85.0,4.037933,0.5,5.0281525,5.0281525,1576.0,1128.5,1128.5,1128.5,-33.688795,-6.2712415,0.02964306,156.315,128.0,138.0,0.0,0.0
20,131213,5.0,-0.0001396977,-0.001274088,0.00627171,0.2559971,37.17175,-0.07906928,-9.725636,39.625,0.0,0.0,0.0,0.0,-1.68266092307692,5.0,5.0,0.0,0.0,0.190769230769231,0.135037515384615,0.0477619969230769,-5.69313315384615,42.7692307692308,0.214615384615385,0.0307692307692308,-0.141538461538462,0.0307692307692308,4.23076923076923,-17.6153846153846,0.0458333333333333,30.0091533333333,-83.6666666666667,40.6349593333333,-71.1666666666667,4.1079715,0.416666666666667,5.31492241666667,5.31492241666667,1575.83333333333,1134.25,1134.25,1134.25,-33.7222941666667,-6.26520741666667,0.0294168,156.315833333333,127.939393939394,138.0,0.0,0.0
21,131228,5.0,0.00056392515,-0.00087644,-0.0009857435,0.27071625,37.21607,-0.09556654,-9.716444,40.0625,0.0,0.0,0.0,0.0,-1.71810353846154,5.0,5.0,0.0,0.0,0.214615384615385,0.132903392307692,0.0465545915384615,-5.69325992307692,42.6153846153846,0.207692307692308,0.0246153846153846,-0.159230769230769,0.0346153846153846,2.38461538461538,-17.6923076923077,0.0466666666666667,24.4998066666667,-68.3333333333333,33.3375306666667,-57.3333333333333,4.17801,0.333333333333333,5.60169233333333,5.60169233333333,1575.66666666667,1140.0,1140.0,1140.0,-33.7557933333333,-6.25917333333333,0.02919054,156.316666666667,127.878787878788,138.0,0.0,0.0
22,131233,5.0,0.001267548,-0.000478792,-0.008243197,0.2854354,37.26039,-0.1120638,-9.707252,40.5,0.0,0.0,0.0,0.0,-1.75354615384615,5.0,5.0,0.0,0.0,0.238461538461538,0.130769269230769,0.0453471861538462,-5.69338669230769,42.4615384615385,0.200769230769231,0.0184615384615385,-0.176923076923077,0.0384615384615385,0.538461538461537,-17.7692307692308,0.0475,18.99046,-53.0,26.040102,-43.5,4.2480485,0.25,5.88846225,5.88846225,1575.5,1145.75,1145.75,1145.75,-33.7892925,-6.25313925,0.02896428,156.3175,127.818181818182,138.0,0.0,0.0
23,131253,5.0,-0.0002754113,6.096097e-05,0.02601871,0.2880853,37.26039,0.009940151,-9.601148,40.25,0.0,0.0,0.0,0.0,-1.78898876923077,5.0,5.0,0.0,0.0,0.262307692307692,0.128635146153846,0.0441397807692308,-5.69351346153846,42.3076923076923,0.193846153846154,0.0123076923076923,-0.194615384615385,0.0423076923076923,-1.30769230769231,-17.8461538461538,0.0483333333333333,13.4811133333333,-37.6666666666667,18.7426733333333,-29.6666666666667,4.318087,0.166666666666667,6.17523216666667,6.17523216666667,1575.33333333333,1151.5,1151.5,1151.5,-33.8227916666667,-6.24710516666667,0.02873802,156.318333333333,127.757575757576,138.0,0.0,0.0
24,131268,5.0,-0.0002805697333333,0.00055050698,0.0194901546666667,0.292134066666667,37.2456166666667,-0.0109562693333333,-9.68269133333333,40.1666666666667,83.0,-329.0,-118.0,391.0,-1.82443138461538,5.0,5.0,0.0,0.0,0.286153846153846,0.126501023076923,0.0429323753846154,-5.69364023076923,42.1538461538462,0.186923076923077,0.0061538461538461,-0.212307692307692,0.0461538461538462,-3.15384615384615,-17.9230769230769,0.0491666666666667,7.97176666666667,-22.3333333333333,11.4452446666667,-15.8333333333333,4.3881255,0.0833333333333334,6.46200208333333,6.46200208333333,1575.16666666667,1157.25,1157.25,1157.25,-33.8562908333333,-6.24107108333333,0.02851176,156.319166666667,127.69696969697,138.0,0.0,0.0
25,131272,5.0,-0.0002857281666666,0.00104005299,0.0129615993333333,0.296182833333333,37.2308433333333,-0.0318526896666667,-9.76423466666667,40.0833333333333,83.0,-328.875,-118.25,391.125,-1.859874,5.0,5.0,0.0,0.0,0.31,0.1243669,0.04172497,-5.693767,42.0,0.18,0.0,-0.23,0.05,-5.0,-18.0,0.05,2.46242,-7.0,4.147816,-2.0,4.458164,0.0,6.748772,6.748772,1575.0,1163.0,1163.0,1163.0,-33.88979,-6.235037,0.0282855,156.32,127.636363636364,138.0,0.0,0.0
26,131274,5.0,-0.0002908866,0.001529599,0.006433044,0.3002316,37.21607,-0.05274911,-9.845778,40.0,83.0,-328.75,-118.5,391.25,-1.79666075,5.0,5.0,0.0,0.0,0.305,0.12096154,0.0400018575,-5.6940845,42.0,0.19625,0.00375,-0.23,-0.00625,-4.875,-18.125,0.0525,2.23688725,-6.375,1.0743465,-2.5,3.501544125,0.0,5.72097325,5.72097325,1575.0,1163.0,1163.0,1163.0,-33.90651375,-6.233695375,0.0284335225,156.32,127.575757575758,138.0,0.0,0.0
27,131293,5.0,-0.0007237111,0.001175956,0.01199055,0.2720579,37.0831,0.02002891,-9.741118,39.625,83.0,-328.625,-118.75,391.375,-1.7334475,5.0,5.0,0.0,0.0,0.3,0.11755618,0.038278745,-5.694402,42.0,0.2125,0.0075,-0.23,-0.0625,-4.75,-18.25,0.055,2.0113545,-5.75,-1.999123,-3.0,2.54492425,0.0,4.6931745,4.6931745,1575.0,1163.0,1163.0,1163.0,-33.9232375,-6.23235375,0.028581545,156.32,127.515151515152,138.0,0.0,0.0
28,131313,5.0,0.0006141158,0.0007957445,0.002828074,0.2567092,37.30471,-0.06287922,-9.806228,40.375,83.0,-328.5,-119.0,391.5,-1.67023425,5.0,5.0,0.0,0.0,0.295,0.11415082,0.0365556325,-5.6947195,42.0,0.22875,0.01125,-0.23,-0.11875,-4.625,-18.375,0.0575,1.78582175,-5.125,-5.0725925,-3.5,1.588304375,0.0,3.66537575,3.66537575,1575.0,1163.0,1163.0,1163.0,-33.93996125,-6.231012125,0.0287295675,156.32,127.454545454545,138.0,0.0,0.0
29,131334,5.0,-6.642706e-05,-0.001231194,-0.003064548,0.2536717,37.21607,-0.001376479,-9.79318,39.875,83.0,-328.375,-119.25,391.625,-1.607021,5.0,5.0,0.0,0.0,0.29,0.11074546,0.03483252,-5.695037,42.0,0.245,0.015,-0.23,-0.175,-4.5,-18.5,0.06,1.560289,-4.5,-8.146062,-4.0,0.6316845,0.0,2.637577,2.637577,1575.0,1163.0,1163.0,1163.0,-33.956685,-6.2296705,0.02887759,156.32,127.393939393939,138.0,0.0,0.0
30,131353,5.0,0.0003133232,-0.001436076,-0.007520622,0.2505187,37.21607,-0.05607992,-9.736317,39.625,83.0,-328.25,-119.5,391.75,-1.54380775,5.0,5.0,0.0,0.0,0.285,0.1073401,0.0331094075,-5.6953545,42.0,0.26125,0.01875,-0.23,-0.23125,-4.375,-18.625,0.0625,1.33475625,-3.875,-11.2195315,-4.5,-0.324935375,0.0,1.60977825,1.60977825,1575.0,1163.0,1163.0,1163.0,-33.97340875,-6.228328875,0.0290256125,156.32,127.333333333333,138.0,0.0,0.0
31,131368,5.0,0.00063591065,-0.001102191275,-0.0037645515,0.25845165,37.22715,-0.0475198575,-9.7318485,39.78125,83.0,-328.125,-119.75,391.875,-1.4805945,5.0,5.0,0.0,0.0,0.28,0.10393474,0.031386295,-5.695672,42.0,0.2775,0.0225,-0.23,-0.2875,-4.25,-18.75,0.065,1.1092235,-3.25,-14.293001,-5.0,-1.28155525,0.0,0.581979499999999,0.581979499999999,1575.0,1163.0,1163.0,1163.0,-33.9901325,-6.22698725,0.029173635,156.32,127.272727272727,138.0,0.0,0.0
32,131369,5.0,0.0009584981,-0.00076830655,-8.48100000000029e-06,0.2663846,37.23823,-0.038959795,-9.72738,39.9375,83.0,-328.0,-120.0,392.0,-1.41738125,5.0,5.0,0.0,0.0,0.275,0.10052938,0.0296631825,-5.6959895,42.0,0.29375,0.02625,-0.23,-0.34375,-4.125,-18.875,0.0675,0.88369075,-2.625,-17.3664705,-5.5,-2.238175125,0.0,-0.44581925,-0.44581925,1575.0,1163.0,1163.0,1163.0,-34.00685625,-6.225645625,0.0293216575,156.32,127.212121212121,138.0,0.0,0.0
33,131373,5.0,0.00128108555,-0.000434421825,0.0037475895,0.27431755,37.24931,-0.0303997325,-9.7229115,40.09375,83.0,-327.666666666667,-118.888888888889,392.777777777778,-1.354168,5.0,5.0,0.0,0.0,0.27,0.09712402,0.02794007,-5.696307,42.0,0.31,0.03,-0.23,-0.4,-4.0,-19.0,0.07,0.658158,-2.0,-20.43994,-6.0,-3.194795,0.0,-1.473618,-1.473618,1575.0,1163.0,1163.0,1163.0,-34.02358,-6.224304,0.02946968,156.32,127.151515151515,138.0,0.0,0.0
34,131375,5.0,0.001603673,-0.0001005371,0.00750366,0.2822505,37.26039,-0.02183967,-9.718443,40.25,83.0,-327.333333333333,-117.777777777778,393.555555555556,-1.40473866666667,5.0,5.0,0.0,0.0,0.27,0.094147037,0.02615036,-5.6971276,42.0,0.31,0.03,-0.23,-0.395,-4.9,-19.8,0.07,2.0109672,-2.0,-16.675364,-5.6,-3.1248899,0.0,-1.2810425,-1.2810425,1575.0,1163.0,1163.0,1163.0,-34.041546,-6.2565251,0.029761384,156.32,127.090909090909,138.0,0.0,0.0
35,131394,5.0,0.0006407594,0.0009087235,0.007462419,0.2812526,37.26039,-0.06948884,-9.787069,40.75,83.0,-327.0,-116.666666666667,394.333333333333,-1.45530933333333,5.0,5.0,0.0,0.0,0.27,0.091170054,0.02436065,-5.6979482,42.0,0.31,0.03,-0.23,-0.39,-5.8,-20.6,0.07,3.3637764,-2.0,-12.910788,-5.2,-3.0549848,0.0,-1.088467,-1.088467,1575.0,1163.0,1163.0,1163.0,-34.059512,-6.2887462,0.030053088,156.32,127.030303030303,138.0,0.0,0.0
36,131404,5.0,0.0004288797203333,0.0010114976666666,0.0051521056,0.282699533333333,37.26039,-0.0640195066666667,-9.77534566666667,40.5,83.0,-326.666666666667,-115.555555555556,395.111111111111,-1.50588,5.0,5.0,0.0,0.0,0.27,0.088193071,0.02257094,-5.6987688,42.0,0.31,0.03,-0.23,-0.385,-6.7,-21.4,0.07,4.7165856,-2.0,-9.146212,-4.8,-2.9850797,0.0,-0.8958915,-0.8958915,1575.0,1163.0,1163.0,1163.0,-34.077478,-6.3209673,0.030344792,156.32,126.969696969697,138.0,0.0,0.0
37,131409,5.0,0.0002170000406666,0.0011142718333333,0.0028417922,0.284146466666667,37.26039,-0.0585501733333333,-9.76362233333333,40.25,83.0,-326.333333333333,-114.444444444444,395.888888888889,-1.55645066666667,5.0,5.0,0.0,0.0,0.27,0.085216088,0.02078123,-5.6995894,42.0,0.31,0.03,-0.23,-0.38,-7.6,-22.2,0.07,6.0693948,-2.0,-5.381636,-4.4,-2.9151746,0.0,-0.703316,-0.703316,1575.0,1163.0,1163.0,1163.0,-34.095444,-6.3531884,0.030636496,156.32,126.909090909091,138.0,0.0,0.0
38,131414,5.0,5.120361e-06,0.001217046,0.0005314788,0.2855934,37.26039,-0.05308084,-9.751899,40.0,83.0,-326.0,-113.333333333333,396.666666666667,-1.60702133333333,5.0,5.0,0.0,0.0,0.27,0.082239105,0.01899152,-5.70041,42.0,0.31,0.03,-0.23,-0.375,-8.5,-23.0,0.07,7.422204,-2.0,-1.61706,-4.0,-2.8452695,0.0,-0.5107405,-0.5107405,1575.0,1163.0,1163.0,1163.0,-34.11341,-6.3854095,0.0309282,156.32,126.848484848485,138.0,0.0,0.0
39,131434,5.0,0.0002408958,-0.0007147394,0.01107632,0.2843775,37.26039,-0.03925617,-9.575164,40.0,83.0,-325.666666666667,-112.222222222222,397.444444444444,-1.657592,5.0,5.0,0.0,0.0,0.27,0.079262122,0.01720181,-5.7012306,42.0,0.31,0.03,-0.23,-0.37,-9.4,-23.8,0.07,8.7750132,-2.0,2.147516,-3.6,-2.7753644,0.0,-0.318165,-0.318165,1575.0,1163.0,1163.0,1163.0,-34.131376,-6.4176306,0.031219904,156.32,126.787878787879,138.0,0.0,0.0
40,131454,5.0,-0.0006974719,-0.001173726,-0.008402289,0.2694538,37.26039,-0.04753443,-9.69395,39.625,83.0,-325.333333333333,-111.111111111111,398.222222222222,-1.70816266666667,5.0,5.0,0.0,0.0,0.27,0.076285139,0.0154121,-5.7020512,42.0,0.31,0.03,-0.23,-0.365,-10.3,-24.6,0.07,10.1278224,-2.0,5.912092,-3.2,-2.7054593,0.0,-0.1255895,-0.1255895,1575.0,1163.0,1163.0,1163.0,-34.149342,-6.4498517,0.031511608,156.32,126.727272727273,138.0,0.0,0.0
41,131469,5.0,-0.0005716206666666,-0.0007660450066666,-0.014242826,0.264799766666667,37.2456166666667,-0.02253607,-9.71598966666667,39.6666666666667,83.0,-325.0,-110.0,399.0,-1.75873333333333,5.0,5.0,0.0,0.0,0.27,0.073308156,0.01362239,-5.7028718,42.0,0.31,0.03,-0.23,-0.36,-11.2,-25.4,0.07,11.4806316,-2.0,9.676668,-2.8,-2.6355542,0.0,0.066986,0.066986,1575.0,1163.0,1163.0,1163.0,-34.167308,-6.4820728,0.031803312,156.32,126.666666666667,138.0,0.0,0.0
42,131474,5.0,-0.0004457694333333,-0.0003583640133333,-0.020083363,0.260145733333333,37.2308433333333,0.00246229,-9.73802933333333,39.7083333333333,83.0,-325.25,-110.5,398.625,-1.809304,5.0,5.0,0.0,0.0,0.27,0.070331173,0.01183268,-5.7036924,42.0,0.31,0.03,-0.23,-0.355,-12.1,-26.2,0.07,12.8334408,-2.0,13.441244,-2.4,-2.5656491,0.0,0.2595615,0.2595615,1575.0,1163.0,1163.0,1163.0,-34.185274,-6.5142939,0.032095016,156.32,126.606060606061,138.0,0.0,0.0
43,131475,5.0,-0.0003199182,4.931698e-05,-0.0259239,0.2554917,37.21607,0.02746065,-9.760069,39.75,83.0,-325.5,-111.0,398.25,-1.758031,4.875,4.875,0.0,0.0,0.27,0.06735419,0.01004297,-5.704513,42.0,0.31,0.03,-0.23,-0.35,-13.0,-27.0,0.07,14.18625,-2.0,17.20582,-2.0,-2.495744,0.0,0.452137,0.452137,1575.0,1163.0,1163.0,1163.0,-34.20324,-6.546515,0.03238672,156.32,126.545454545455,138.0,0.0,0.0
44,131494,5.0,0.0004000187,-0.0003770829,0.00541178,0.2634953,37.26039,-0.005537806,-9.729362,39.75,83.0,-325.75,-111.5,397.875,-1.706758,4.75,4.75,0.0,0.0,0.265,0.06362216625,0.007843238875,-5.705887375,42.0,0.29375,0.0275,-0.23625,-0.29875,-12.5,-26.5,0.06875,13.7509425,-1.75,14.692007625,-0.625,-1.965526875,0.25,0.4488349,0.4488349,1575.25,1163.0,1163.0,1163.0,-34.25404,-6.570811125,0.03265912,156.32125,126.484848484848,138.0,0.0,0.0
45,131514,5.0,8.964692e-05,-0.0004382032,0.00532053,0.2784182,37.21607,-0.1029917,-9.72627,39.75,83.0,-326.0,-112.0,397.5,-1.655485,4.625,4.625,0.0,0.0,0.26,0.0598901425,0.00564350775,-5.70726175,42.0,0.2775,0.025,-0.2425,-0.2475,-12.0,-26.0,0.0675,13.315635,-1.5,12.17819525,0.75,-1.43530975,0.5,0.4455328,0.4455328,1575.5,1163.0,1163.0,1163.0,-34.30484,-6.59510725,0.03293152,156.3225,126.424242424242,138.0,0.0,0.0
46,131534,5.0,-0.0001772885,-0.000764238,0.00108174,0.3063692,37.21607,-0.02971134,-9.823165,39.625,83.0,-326.25,-112.5,397.125,-1.604212,4.5,4.5,0.0,0.0,0.255,0.05615811875,0.003443776625,-5.708636125,42.0,0.26125,0.0225,-0.24875,-0.19625,-11.5,-25.5,0.06625,12.8803275,-1.25,9.664382875,2.125,-0.905092625,0.75,0.4422307,0.4422307,1575.75,1163.0,1163.0,1163.0,-34.35564,-6.619403375,0.03320392,156.32375,126.363636363636,138.0,0.0,0.0
47,131554,5.0,-9.981162e-05,-0.0004375287,-0.005846249,0.2742985,37.21607,-0.03190069,-9.704825,39.625,83.0,-326.5,-113.0,396.75,-1.552939,4.375,4.375,0.0,0.0,0.25,0.052426095,0.0012440455,-5.7100105,42.0,0.245,0.02,-0.255,-0.145,-11.0,-25.0,0.065,12.44502,-1.0,7.1505705,3.5,-0.3748755,1.0,0.4389286,0.4389286,1576.0,1163.0,1163.0,1163.0,-34.40644,-6.6436995,0.03347632,156.325,126.30303030303,138.0,0.0,0.0
48,131569,5.0,-0.000130414065,-0.00021471255,0.00176833575,0.2745414,37.20499,-0.02783917,-9.7225415,39.65625,83.0,-326.75,-113.5,396.375,-1.501666,4.25,4.25,0.0,0.0,0.245,0.04869407125,-0.0009556856249999,-5.711384875,42.0,0.22875,0.0175,-0.26125,-0.09375,-10.5,-24.5,0.06375,12.0097125,-0.75,4.636758125,4.875,0.155341625,1.25,0.4356265,0.4356265,1576.25,1163.0,1163.0,1163.0,-34.45724,-6.667995625,0.03374872,156.32625,126.242424242424,138.0,0.0,0.0
49,131570,5.0,-0.00016101651,8.10360000000002e-06,0.0093829205,0.2747843,37.19391,-0.02377765,-9.740258,39.6875,83.0,-327.0,-114.0,396.0,-1.450393,4.125,4.125,0.0,0.0,0.24,0.0449620475,-0.00315541675,-5.71275925,42.0,0.2125,0.015,-0.2675,-0.0425,-10.0,-24.0,0.0625,11.574405,-0.5,2.12294575,6.25,0.68555875,1.5,0.4323244,0.4323244,1576.5,1163.0,1163.0,1163.0,-34.50804,-6.69229175,0.03402112,156.3275,126.181818181818,138.0,0.0,0.0
50,131574,5.0,-0.000191618955,0.00023091975,0.01699750525,0.2750272,37.18283,-0.01971613,-9.7579745,39.71875,83.0,-327.125,-114.375,396.0,-1.39912,4.0,4.0,0.0,0.0,0.235,0.04123002375,-0.005355147875,-5.714133625,42.0,0.19625,0.0125,-0.27375,0.0087499999999999,-9.5,-23.5,0.06125,11.1390975,-0.25,-0.390866624999997,7.625,1.215775875,1.75,0.4290223,0.4290223,1576.75,1163.0,1163.0,1163.0,-34.55884,-6.716587875,0.03429352,156.32875,126.121212121212,138.0,0.0,0.0
51,131576,5.0,-0.0002222214,0.0004537359,0.02461209,0.2752701,37.17175,-0.01565461,-9.775691,39.75,83.0,-327.25,-114.75,396.0,-1.401227125,4.0,4.0,0.0,0.0,0.23,0.037498,-0.007554879,-5.715508,42.0,0.18,0.01,-0.28,0.06,-9.0,-23.0,0.06,10.70379,0.0,-2.904679,9.0,1.745993,2.0,0.4257202,0.4257202,1577.0,1163.0,1163.0,1163.0,-34.60964,-6.740884,0.03456592,156.33,126.060606060606,138.0,0.0,0.0
52,131590,5.0,-0.0002644803,0.00055794825,0.0128960265,0.270578,37.23823,-0.034247495,-9.805473,40.125,83.0,-327.375,-115.125,396.0,-1.40333425,4.0,4.0,0.0,0.0,0.23,0.033971649,-0.009613175375,-5.71718625,42.0,0.18,0.01,-0.28,0.0575,-8.625,-23.0,0.06,11.53730625,0.875,-1.715096375,7.5,-0.694202375,2.0,-0.0378847,-0.0378847,1577.0,1163.0,1163.0,1163.0,-34.642295,-6.769111625,0.03433919875,156.32875,126.0,138.0,0.0,0.0
53,131595,5.0,-0.0003067392,0.0006621606,0.001179963,0.2658859,37.30471,-0.05284038,-9.835255,40.5,83.0,-327.5,-115.5,396.0,-1.405441375,4.0,4.0,0.0,0.0,0.23,0.030445298,-0.01167147175,-5.7188645,42.0,0.18,0.01,-0.28,0.055,-8.25,-23.0,0.06,12.3708225,1.75,-0.52551375,6.0,-3.13439775,2.0,-0.5014896,-0.5014896,1577.0,1163.0,1163.0,1163.0,-34.67495,-6.79733925,0.0341124775,156.3275,126.06338028169,138.028169014085,0.0,0.0
54,131615,5.0,0.0002091258,0.0002639383,0.005752913,0.260046,37.21607,-0.02470501,-9.837901,39.625,83.0,-327.625,-115.875,396.0,-1.4075485,4.0,4.0,0.0,0.0,0.23,0.026918947,-0.013729768125,-5.72054275,42.0,0.18,0.01,-0.28,0.0525,-7.875,-23.0,0.06,13.20433875,2.625,0.664068875,4.5,-5.574593125,2.0,-0.9650945,-0.9650945,1577.0,1163.0,1163.0,1163.0,-34.707605,-6.825566875,0.03388575625,156.32625,126.12676056338,138.056338028169,0.0,0.0
55,131635,5.0,0.001146977,0.0009683661,-0.01272704,0.271298,37.30471,-0.05099664,-9.838605,39.625,83.0,-327.75,-116.25,396.0,-1.409655625,4.0,4.0,0.0,0.0,0.23,0.023392596,-0.0157880645,-5.722221,42.0,0.18,0.01,-0.28,0.05,-7.5,-23.0,0.06,14.037855,3.5,1.8536515,3.0,-8.0147885,2.0,-1.4286994,-1.4286994,1577.0,1163.0,1163.0,1163.0,-34.74026,-6.8537945,0.033659035,156.325,126.19014084507,138.084507042254,0.0,0.0
56,131655,5.0,0.0003929728,0.0006226257,0.006522303,0.280197,37.21607,-0.01261234,-9.790339,39.625,83.0,-327.875,-116.625,396.0,-1.41176275,4.0,4.0,0.0,0.0,0.23,0.019866245,-0.017846360875,-5.72389925,42.0,0.18,0.01,-0.28,0.0475,-7.125,-23.0,0.06,14.87137125,4.375,3.043234125,1.5,-10.454983875,2.0,-1.8923043,-1.8923043,1577.0,1163.0,1163.0,1163.0,-34.772915,-6.882022125,0.03343231375,156.32375,126.253521126761,138.112676056338,0.0,0.0
57,131670,5.0,0.0001987297333333,0.0002726410666666,0.0081229553333333,0.280199633333333,37.2456166666667,-0.0183362033333333,-9.764875,39.6666666666667,83.0,-328.0,-117.0,396.0,-1.413869875,4.0,4.0,0.0,0.0,0.23,0.016339894,-0.01990465725,-5.7255775,42.0,0.18,0.01,-0.28,0.045,-6.75,-23.0,0.06,15.7048875,5.25,4.23281675,0.0,-12.89517925,2.0,-2.3559092,-2.3559092,1577.0,1163.0,1163.0,1163.0,-34.80557,-6.91024975,0.0332055925,156.3225,126.316901408451,138.140845070423,0.0,0.0
58,131674,5.0,4.48666666666669e-06,-7.73435666666666e-05,0.0097236076666666,0.280202266666667,37.2751633333333,-0.0240600666666667,-9.739411,39.7083333333333,83.0,-328.142857142857,-116.857142857143,395.285714285714,-1.415977,4.0,4.0,0.0,0.0,0.23,0.012813543,-0.021962953625,-5.72725575,42.0,0.18,0.01,-0.28,0.0425,-6.375,-23.0,0.06,16.53840375,6.125,5.422399375,-1.5,-15.335374625,2.0,-2.8195141,-2.8195141,1577.0,1163.0,1163.0,1163.0,-34.838225,-6.938477375,0.03297887125,156.32125,126.380281690141,138.169014084507,0.0,0.0
59,131676,5.0,-0.0001897564,-0.0004273282,0.01132426,0.2802049,37.30471,-0.02978393,-9.713947,39.75,83.0,-328.285714285714,-116.714285714286,394.571428571429,-1.40875257142857,4.0,4.0,0.0,0.0,0.23,0.009287192,-0.02402125,-5.728934,42.0,0.18,0.01,-0.28,0.04,-6.0,-23.0,0.06,17.37192,7.0,6.611982,-3.0,-17.77557,2.0,-3.283119,-3.283119,1577.0,1163.0,1163.0,1163.0,-34.87088,-6.966705,0.03275215,156.32,126.443661971831,138.197183098592,0.0,0.0
60,131695,5.0,0.0005330633,0.0003287932,-0.009459702,0.2911045,37.21607,-0.1234662,-9.761915,39.75,83.0,-328.428571428571,-116.571428571429,393.857142857143,-1.40152814285714,4.0,4.0,0.0,0.0,0.225714285714286,0.005202736,-0.02657741,-5.73126314285714,41.8571428571429,0.192857142857143,0.0171428571428571,-0.272857142857143,0.0471428571428571,-6.14285714285714,-22.2857142857143,0.0614285714285714,17.1843785714286,4.42857142857143,8.71432028571429,-2.57142857142857,-14.9811587142857,1.57142857142857,-2.82348888,-2.82348888,1577.0,1163.0,1163.0,1163.0,-34.8726414285714,-6.98594242857143,0.0327259971428571,156.32,126.507042253521,138.225352112676,0.0,0.0
61,131715,5.0,-0.0001224675,0.001647511,-0.005061064,0.2816251,37.26039,-0.05788998,-9.685874,39.625,83.0,-328.571428571429,-116.428571428571,393.142857142857,-1.39430371428571,4.0,4.0,0.0,0.0,0.221428571428571,0.00111828,-0.02913357,-5.73359228571429,41.7142857142857,0.205714285714286,0.0242857142857143,-0.265714285714286,0.0542857142857143,-6.28571428571429,-21.5714285714286,0.0628571428571429,16.9968371428571,1.85714285714286,10.8166585714286,-2.14285714285714,-12.1867474285714,1.14285714285714,-2.36385876,-2.36385876,1577.0,1163.0,1163.0,1163.0,-34.8744028571429,-7.00517985714286,0.0326998442857143,156.32,126.570422535211,138.253521126761,0.0,0.0
62,131735,5.0,-0.0007054437,0.001096385,-0.001641323,0.277551,37.26039,-0.04313117,-9.68146,39.625,83.0,-328.714285714286,-116.285714285714,392.428571428571,-1.38707928571429,4.0,4.0,0.0,0.0,0.217142857142857,-0.002966176,-0.03168973,-5.73592142857143,41.5714285714286,0.218571428571429,0.0314285714285714,-0.258571428571429,0.0614285714285714,-6.42857142857143,-20.8571428571429,0.0642857142857143,16.8092957142857,-0.714285714285715,12.9189968571429,-1.71428571428571,-9.39233614285714,0.714285714285714,-1.90422864,-1.90422864,1577.0,1163.0,1163.0,1163.0,-34.8761642857143,-7.02441728571429,0.0326736914285714,156.32,126.633802816901,138.281690140845,0.0,0.0
63,131755,5.0,-0.0002249482,-7.356703e-05,-0.01111179,0.2743637,37.17175,-0.05115312,-9.70055,40.375,83.0,-328.857142857143,-116.142857142857,391.714285714286,-1.37985485714286,4.0,4.0,0.0,0.0,0.212857142857143,-0.007050632,-0.03424589,-5.73825057142857,41.4285714285714,0.231428571428571,0.0385714285714286,-0.251428571428571,0.0685714285714286,-6.57142857142857,-20.1428571428571,0.0657142857142857,16.6217542857143,-3.28571428571429,15.0213351428571,-1.28571428571429,-6.59792485714286,0.285714285714286,-1.44459852,-1.44459852,1577.0,1163.0,1163.0,1163.0,-34.8779257142857,-7.04365471428571,0.0326475385714286,156.32,126.697183098592,138.30985915493,0.0,0.0
64,131770,5.0,-1.63031333333333e-05,-0.0003248480533333,-0.009611664,0.272969233333333,37.1865233333333,-0.0333233593333333,-9.71846066666667,40.25,83.0,-329.0,-116.0,391.0,-1.37263042857143,4.0,4.0,0.0,0.0,0.208571428571429,-0.011135088,-0.03680205,-5.74057971428571,41.2857142857143,0.244285714285714,0.0457142857142857,-0.244285714285714,0.0757142857142857,-6.71428571428571,-19.4285714285714,0.0671428571428571,16.4342128571429,-5.85714285714286,17.1236734285714,-0.857142857142857,-3.80351357142857,-0.142857142857143,-0.9849684,-0.9849684,1577.0,1163.0,1163.0,1163.0,-34.8796871428571,-7.06289214285714,0.0326213857142857,156.32,126.760563380282,138.338028169014,0.0,0.0
65,131775,5.0,0.0001923419333333,-0.0005761290766666,-0.008111538,0.271574766666667,37.2012966666667,-0.0154935986666667,-9.73637133333333,40.125,83.0,-329.0,-116.428571428571,391.0,-1.365406,4.0,4.0,0.0,0.0,0.204285714285714,-0.015219544,-0.03935821,-5.74290885714286,41.1428571428571,0.257142857142857,0.0528571428571429,-0.237142857142857,0.0828571428571429,-6.85714285714286,-18.7142857142857,0.0685714285714286,16.2466714285714,-8.42857142857143,19.2260117142857,-0.428571428571429,-1.00910228571428,-0.571428571428571,-0.52533828,-0.52533828,1577.0,1163.0,1163.0,1163.0,-34.8814485714286,-7.08212957142857,0.0325952328571429,156.32,126.823943661972,138.366197183099,0.0,0.0
66,131777,5.0,0.000400987,-0.0008274101,-0.006611412,0.2701803,37.21607,0.002336162,-9.754282,40.0,83.0,-329.0,-116.857142857143,391.0,-1.34453557142857,4.0,4.0,0.0,0.0,0.2,-0.019304,-0.04191437,-5.745238,41.0,0.27,0.06,-0.23,0.09,-7.0,-18.0,0.07,16.05913,-11.0,21.32835,0.0,1.785309,-1.0,-0.06570816,-0.06570816,1577.0,1163.0,1163.0,1163.0,-34.88321,-7.101367,0.03256908,156.32,126.887323943662,138.394366197183,0.0,0.0
67,131797,5.0,0.0001873253,-0.0001548142,-0.01690459,0.2727323,37.21607,-0.1221085,-9.830492,40.0,83.0,-329.0,-117.285714285714,391.0,-1.32366514285714,4.0,4.0,0.0,0.0,0.2,-0.0236208357142857,-0.04512231,-5.74807271428571,41.0,0.27,0.06,-0.23,0.11,-6.57142857142857,-18.0,0.07,13.2355637142857,-9.57142857142857,14.5729457142857,-0.428571428571429,-0.643358,-0.714285714285714,-0.528362851428571,-0.528362851428571,1577.0,1163.0,1163.0,1163.0,-34.92163625,-7.11768125,0.03258530625,156.32,126.950704225352,138.422535211268,0.0,0.0
68,131817,5.0,0.0006259803,0.0002109286,0.006451303,0.2978667,37.30471,-0.02507586,-9.838958,39.625,83.0,-329.0,-117.714285714286,391.0,-1.30279471428571,4.0,4.0,0.0,0.0,0.2,-0.0279376714285714,-0.04833025,-5.75090742857143,41.0,0.27,0.06,-0.23,0.13,-6.14285714285714,-18.0,0.07,10.4119974285714,-8.14285714285714,7.81754142857143,-0.857142857142857,-3.072025,-0.428571428571429,-0.991017542857143,-0.991017542857143,1577.0,1163.0,1163.0,1163.0,-34.9600625,-7.1339955,0.0326015325,156.32,127.014084507042,138.450704225352,0.0,0.0
69,131837,5.0,-0.0004392118,0.001224868,-0.00104898,0.2956418,37.30471,-0.0464092,-9.598071,39.75,83.0,-329.0,-118.142857142857,391.0,-1.28192428571429,4.0,4.0,0.0,0.0,0.2,-0.0322545071428571,-0.05153819,-5.75374214285714,41.0,0.27,0.06,-0.23,0.15,-5.71428571428571,-18.0,0.07,7.58843114285714,-6.71428571428571,1.06213714285714,-1.28571428571429,-5.500692,-0.142857142857143,-1.45367223428571,-1.45367223428571,1577.0,1163.0,1163.0,1163.0,-34.99848875,-7.15030975,0.03261775875,156.32,127.077464788732,138.478873239437,0.0,0.0
70,131857,5.0,-0.0007539538,0.0003857777,-0.01014348,0.285423,37.21607,-0.02702954,-9.800701,39.75,83.0,-329.0,-118.571428571429,391.0,-1.26105385714286,4.0,4.0,0.0,0.0,0.2,-0.0365713428571429,-0.05474613,-5.75657685714286,41.0,0.27,0.06,-0.23,0.17,-5.28571428571429,-18.0,0.07,4.76486485714286,-5.28571428571429,-5.69326714285714,-1.71428571428571,-7.929359,0.142857142857143,-1.91632692571429,-1.91632692571429,1577.0,1163.0,1163.0,1163.0,-35.036915,-7.166624,0.032633985,156.32,127.140845070423,138.507042253521,0.0,0.0
71,131871,5.0,-0.000648773375,0.000338562725,-0.0044672525,0.28387315,37.21607,-0.039538715,-9.7697775,40.03125,83.0,-329.0,-119.0,391.0,-1.24018342857143,4.0,4.0,0.0,0.0,0.2,-0.0408881785714286,-0.05795407,-5.75941157142857,41.0,0.27,0.06,-0.23,0.19,-4.85714285714286,-18.0,0.07,1.94129857142857,-3.85714285714286,-12.4486714285714,-2.14285714285714,-10.358026,0.428571428571428,-2.37898161714286,-2.37898161714286,1577.0,1163.0,1163.0,1163.0,-35.07534125,-7.18293825,0.03265021125,156.32,127.204225352113,138.535211267606,0.0,0.0
72,131876,5.0,-0.00054359295,0.00029134775,0.001208975,0.2823233,37.21607,-0.05204789,-9.738854,40.3125,83.0,-328.75,-118.5,392.25,-1.219313,4.0,4.0,0.0,0.0,0.2,-0.0452050142857143,-0.06116201,-5.76224628571429,41.0,0.27,0.06,-0.23,0.21,-4.42857142857143,-18.0,0.07,-0.882267714285714,-2.42857142857143,-19.2040757142857,-2.57142857142857,-12.786693,0.714285714285714,-2.84163630857143,-2.84163630857143,1577.0,1163.0,1163.0,1163.0,-35.1137675,-7.1992525,0.0326664375,156.32,127.267605633803,138.56338028169,0.0,0.0
73,131877,5.0,-0.000438412525,0.000244132775,0.0068852025,0.28077345,37.21607,-0.064557065,-9.7079305,40.59375,83.0,-328.5,-118.0,393.5,-1.2221225,4.0,4.0,0.0,0.0,0.2,-0.04952185,-0.06436995,-5.765081,41.0,0.27,0.06,-0.23,0.23,-4.0,-18.0,0.07,-3.705834,-1.0,-25.95948,-3.0,-15.21536,1.0,-3.304291,-3.304291,1577.0,1163.0,1163.0,1163.0,-35.15219375,-7.21556675,0.03268266375,156.32,127.330985915493,138.591549295775,0.0,0.0
74,131878,5.0,-0.0003332321,0.0001969178,0.01256143,0.2792236,37.21607,-0.07706624,-9.677007,40.875,83.0,-328.25,-117.5,394.75,-1.224932,4.0,4.0,0.0,0.0,0.195714285714286,-0.0538242414285714,-0.0672815028571428,-5.76832757142857,41.1428571428571,0.254285714285714,0.0442857142857143,-0.237142857142857,0.23,-4.57142857142857,-19.4285714285714,0.0685714285714286,-3.43672625,-1.125,-23.367557875,-0.375,-13.02669825,0.875,-2.67787,-2.67787,1576.75,1163.0,1163.0,1163.0,-35.19062,-7.231881,0.03269889,156.32,127.394366197183,138.619718309859,0.0,0.0
75,131897,5.0,0.0003053721,5.15502e-05,0.0007669702,0.2588161,37.21607,-0.1538816,-9.75322,39.75,83.0,-328.0,-117.0,396.0,-1.2277415,4.0,4.0,0.0,0.0,0.191428571428571,-0.0581266328571429,-0.0701930557142857,-5.77157414285714,41.2857142857143,0.238571428571429,0.0285714285714286,-0.244285714285714,0.23,-5.14285714285714,-20.8571428571429,0.0671428571428571,-3.1676185,-1.25,-20.77563575,2.25,-10.8380365,0.75,-2.051449,-2.051449,1576.5,1163.0,1163.0,1163.0,-35.2314657142857,-7.23234114285714,0.0322831171428571,156.32,127.457746478873,138.647887323944,0.0,0.0
76,131917,5.0,8.672461e-05,4.666042e-05,-0.002595276,0.2483172,37.26039,-0.02300684,-9.746679,40.375,83.0,-327.75,-116.5,397.25,-1.230551,4.0,4.0,0.0,0.0,0.187142857142857,-0.0624290242857143,-0.0731046085714286,-5.77482071428571,41.4285714285714,0.222857142857143,0.0128571428571429,-0.251428571428571,0.23,-5.71428571428571,-22.2857142857143,0.0657142857142857,-2.89851075,-1.375,-18.183713625,4.875,-8.64937475,0.625,-1.425028,-1.425028,1576.25,1163.0,1163.0,1163.0,-35.2723114285714,-7.23280128571429,0.0318673442857143,156.32,127.521126760563,138.676056338028,0.0,0.0
77,131937,5.0,0.0006310359,0.0001209568,0.0007212877,0.2903754,37.26039,-0.03088856,-9.80302,39.875,83.0,-327.5,-116.0,398.5,-1.2333605,4.0,4.0,0.0,0.0,0.182857142857143,-0.0667314157142857,-0.0760161614285714,-5.77806728571429,41.5714285714286,0.207142857142857,-0.0028571428571428,-0.258571428571429,0.23,-6.28571428571429,-23.7142857142857,0.0642857142857143,-2.629403,-1.5,-15.5917915,7.5,-6.460713,0.5,-0.798607,-0.798607,1576.0,1163.0,1163.0,1163.0,-35.3131571428571,-7.23326142857143,0.0314515714285714,156.32,127.584507042254,138.704225352113,0.0,0.0
78,131957,5.0,-0.0002332118,9.30833e-05,-0.0001298367,0.2953089,37.26039,-0.07624571,-9.576015,39.75,83.0,-327.25,-115.5,399.75,-1.23617,4.0,4.0,0.0,0.0,0.178571428571429,-0.0710338071428571,-0.0789277142857143,-5.78131385714286,41.7142857142857,0.191428571428571,-0.0185714285714286,-0.265714285714286,0.23,-6.85714285714286,-25.1428571428571,0.0628571428571429,-2.36029525,-1.625,-12.999869375,10.125,-4.27205125,0.375,-0.172186,-0.172186,1575.75,1163.0,1163.0,1163.0,-35.3540028571429,-7.23372157142857,0.0310357985714286,156.32,127.647887323944,138.732394366197,0.0,0.0
79,131972,5.0,-0.0001451331966666,-7.55077666666667e-05,-0.0019902834666666,0.295484333333333,37.2308433333333,-0.0638547233333333,-9.642854,39.75,83.0,-327.0,-115.0,401.0,-1.2389795,4.0,4.0,0.0,0.0,0.174285714285714,-0.0753361985714286,-0.0818392671428571,-5.78456042857143,41.8571428571429,0.175714285714286,-0.0342857142857143,-0.272857142857143,0.23,-7.42857142857143,-26.5714285714286,0.0614285714285714,-2.0911875,-1.75,-10.40794725,12.75,-2.0833895,0.25,0.454235,0.454235,1575.5,1163.0,1163.0,1163.0,-35.3948485714286,-7.23418171428571,0.0306200257142857,156.32,127.711267605634,138.760563380282,0.0,0.0
80,131977,5.0,-5.70545933333333e-05,-0.0002440988333333,-0.0038507302333333,0.295659766666667,37.2012966666667,-0.0514637366666667,-9.709693,39.75,83.0,-327.285714285714,-115.285714285714,399.142857142857,-1.241789,4.0,4.0,0.0,0.0,0.17,-0.07963859,-0.08475082,-5.787807,42.0,0.16,-0.05,-0.28,0.23,-8.0,-28.0,0.06,-1.82207975,-1.875,-7.816025125,15.375,0.105272250000001,0.125,1.080656,1.080656,1575.25,1163.0,1163.0,1163.0,-35.4356942857143,-7.23464185714286,0.0302042528571429,156.32,127.774647887324,138.788732394366,0.0,0.0
81,131978,5.0,3.102401e-05,-0.0004126899,-0.005711177,0.2958352,37.17175,-0.03907275,-9.776532,39.75,83.0,-327.571428571429,-115.571428571429,397.285714285714,-1.28914885714286,4.0,4.0,0.0,0.0,0.17,-0.0832432342857143,-0.0873267885714286,-5.79099657142857,42.0,0.16,-0.05,-0.28,0.225714285714286,-7.71428571428571,-26.1428571428571,0.06,-1.552972,-2.0,-5.224103,18.0,2.293934,0.0,1.707077,1.707077,1575.0,1163.0,1163.0,1163.0,-35.47654,-7.235102,0.02978848,156.32125,127.838028169014,138.816901408451,0.0,0.0
82,131997,5.0,-0.001707092,0.000449472,0.01912431,0.2974093,37.30471,-0.05112319,-9.769558,39.875,83.0,-327.857142857143,-115.857142857143,395.428571428571,-1.33650871428571,4.0,4.0,0.0,0.0,0.17,-0.0868478785714286,-0.0899027571428571,-5.79418614285714,42.0,0.16,-0.05,-0.28,0.221428571428571,-7.42857142857143,-24.2857142857143,0.06,-2.079905,-2.0,-2.57464114285714,14.1428571428571,3.43011914285714,-0.142857142857143,0.861413142857143,0.861413142857143,1575.0,1163.0,1163.0,1163.0,-35.4902871428571,-7.25065271428571,0.0299648328571429,156.3225,127.901408450704,138.845070422535,0.0,0.0
83,132017,5.0,-0.0005357874,0.000255629,0.01186042,0.2748116,37.30471,-0.1279275,-9.842358,40.375,83.0,-328.142857142857,-116.142857142857,393.571428571429,-1.38386857142857,4.0,4.0,0.0,0.0,0.17,-0.0904525228571429,-0.0924787257142857,-5.79737571428571,42.0,0.16,-0.05,-0.28,0.217142857142857,-7.14285714285714,-22.4285714285714,0.06,-2.606838,-2.0,0.074820714285714,10.2857142857143,4.56630428571429,-0.285714285714286,0.0157492857142856,0.0157492857142856,1575.0,1163.0,1163.0,1163.0,-35.5040342857143,-7.26620342857143,0.0301411857142857,156.32375,127.964788732394,138.87323943662,0.0,0.0
84,132037,5.0,0.0006572737,0.0001578925,-0.00964028,0.2607292,37.30471,-0.08966149,-9.73786,39.75,83.0,-328.428571428571,-116.428571428571,391.714285714286,-1.43122842857143,4.0,4.0,0.0,0.0,0.17,-0.0940571671428571,-0.0950546942857143,-5.80056528571429,42.0,0.16,-0.05,-0.28,0.212857142857143,-6.85714285714286,-20.5714285714286,0.06,-3.133771,-2.0,2.72428257142857,6.42857142857143,5.70248942857143,-0.428571428571429,-0.829914571428572,-0.829914571428572,1575.0,1163.0,1163.0,1163.0,-35.5177814285714,-7.28175414285714,0.0303175385714286,156.325,128.028169014085,138.901408450704,0.0,0.0
85,132057,5.0,0.0009790201,0.0008427456,-0.006287236,0.2551484,37.30471,-0.05950791,-9.798176,39.75,83.0,-328.714285714286,-116.714285714286,389.857142857143,-1.47858828571429,4.0,4.0,0.0,0.0,0.17,-0.0976618114285714,-0.0976306628571429,-5.80375485714286,42.0,0.16,-0.05,-0.28,0.208571428571429,-6.57142857142857,-18.7142857142857,0.06,-3.660704,-2.0,5.37374442857143,2.57142857142857,6.83867457142857,-0.571428571428571,-1.67557842857143,-1.67557842857143,1575.0,1163.0,1163.0,1163.0,-35.5315285714286,-7.29730485714286,0.0304938914285714,156.32625,128.091549295775,138.929577464789,0.0,0.0
86,132072,5.0,0.0009609905,0.0003610260333333,-0.0038266366666666,0.263363466666667,37.2751633333333,-0.09154574,-9.76020733333333,39.7083333333333,83.0,-329.0,-117.0,388.0,-1.52594814285714,4.0,4.0,0.0,0.0,0.17,-0.101266455714286,-0.100206631428571,-5.80694442857143,42.0,0.16,-0.05,-0.28,0.204285714285714,-6.28571428571429,-16.8571428571429,0.06,-4.187637,-2.0,8.02320628571428,-1.28571428571428,7.97485971428571,-0.714285714285714,-2.52124228571429,-2.52124228571429,1575.0,1163.0,1163.0,1163.0,-35.5452757142857,-7.31285557142857,0.0306702442857143,156.3275,128.154929577465,138.957746478873,0.0,0.0
87,132077,5.0,0.0009429609,-0.0001206935333333,-0.0013660373333333,0.271578533333333,37.2456166666667,-0.12358357,-9.72223866666667,39.6666666666667,83.0,-328.875,-116.25,389.125,-1.573308,4.0,4.0,0.0,0.0,0.17,-0.1048711,-0.1027826,-5.810134,42.0,0.16,-0.05,-0.28,0.2,-6.0,-15.0,0.06,-4.71457,-2.0,10.6726681428571,-5.14285714285714,9.11104485714286,-0.857142857142857,-3.36690614285714,-3.36690614285714,1575.0,1163.0,1163.0,1163.0,-35.5590228571429,-7.32840628571429,0.0308465971428571,156.32875,128.218309859155,138.985915492958,0.0,0.0
88,132078,5.0,0.0009249313,-0.0006024131,0.001094562,0.2797936,37.21607,-0.1556214,-9.68427,39.625,83.0,-328.75,-115.5,390.25,-1.567689,4.0,4.0,0.0,0.0,0.1675,-0.108631175,-0.1049462,-5.813235875,42.125,0.1625,-0.0675,-0.2825,0.15875,-6.625,-16.0,0.06,-5.241503,-2.0,13.32213,-9.0,10.24723,-1.0,-4.21257,-4.21257,1575.0,1163.0,1163.0,1163.0,-35.57277,-7.343957,0.03102295,156.33,128.281690140845,139.014084507042,0.0,0.0
89,132097,5.0,0.0006699495,-0.001128829,0.009099045,0.3026619,37.21607,-0.02880865,-9.763191,39.625,83.0,-328.625,-114.75,391.375,-1.56207,4.0,4.0,0.0,0.0,0.165,-0.11239125,-0.1071098,-5.81633775,42.25,0.165,-0.085,-0.285,0.1175,-7.25,-17.0,0.0614285714285714,-5.52832628571429,-1.71428571428571,8.83085571428571,-8.57142857142857,6.71695285714286,-0.857142857142857,-3.62785868571429,-3.62785868571429,1575.0,1163.0,1163.0,1163.0,-35.5831125,-7.347569375,0.03146057875,156.328571428571,128.345070422535,139.042253521127,0.0,0.0
90,132117,5.0,0.0001409126,-0.0007210458,0.02648633,0.320054,37.34903,-0.00307711,-9.77584,39.75,83.0,-328.5,-114.0,392.5,-1.556451,4.0,4.0,0.0,0.0,0.1625,-0.116151325,-0.1092734,-5.819439625,42.375,0.1675,-0.1025,-0.2875,0.07625,-7.875,-18.0,0.0628571428571429,-5.81514957142857,-1.42857142857143,4.33958142857143,-8.14285714285714,3.18667571428572,-0.714285714285714,-3.04314737142857,-3.04314737142857,1575.0,1163.0,1163.0,1163.0,-35.593455,-7.35118175,0.0318982075,156.327142857143,128.408450704225,139.070422535211,0.0,0.0
91,132137,5.0,-0.0002869073,0.001362136,0.0001940749,0.2899586,37.26039,-0.02031766,-9.872829,40.375,83.0,-328.375,-113.25,393.625,-1.550832,4.0,4.0,0.0,0.0,0.16,-0.1199114,-0.111437,-5.8225415,42.5,0.17,-0.12,-0.29,0.035,-8.5,-19.0,0.0642857142857143,-6.10197285714286,-1.14285714285714,-0.151692857142857,-7.71428571428571,-0.343601428571427,-0.571428571428571,-2.45843605714286,-2.45843605714286,1575.0,1163.0,1163.0,1163.0,-35.6037975,-7.354794125,0.03233583625,156.325714285714,128.471830985915,139.098591549296,0.0,0.0
92,132152,5.0,-0.00088099115,0.0015002145,0.00158173145,0.2818426,37.26039,-0.05259367,-9.771352,40.125,83.0,-328.25,-112.5,394.75,-1.545213,4.0,4.0,0.0,0.0,0.1575,-0.123671475,-0.1136006,-5.825643375,42.625,0.1725,-0.1375,-0.2925,-0.00625,-9.125,-20.0,0.0657142857142857,-6.38879614285714,-0.857142857142857,-4.64296714285714,-7.28571428571429,-3.87387857142857,-0.428571428571429,-1.87372474285714,-1.87372474285714,1575.0,1163.0,1163.0,1163.0,-35.61414,-7.3584065,0.032773465,156.324285714286,128.535211267606,139.12676056338,0.0,0.0
93,132157,5.0,-0.001475075,0.001638293,0.002969388,0.2737266,37.26039,-0.08486968,-9.669875,39.875,83.0,-328.125,-111.75,395.875,-1.539594,4.0,4.0,0.0,0.0,0.155,-0.12743155,-0.1157642,-5.82874525,42.75,0.175,-0.155,-0.295,-0.0475,-9.75,-21.0,0.0671428571428571,-6.67561942857143,-0.571428571428572,-9.13424142857143,-6.85714285714286,-7.40415571428571,-0.285714285714286,-1.28901342857143,-1.28901342857143,1575.0,1163.0,1163.0,1163.0,-35.6244825,-7.362018875,0.03321109375,156.322857142857,128.598591549296,139.154929577465,0.0,0.0
94,132172,5.0,-0.0012421818666666,0.001453999,-0.0001947536666666,0.2696192,37.2308433333333,-0.06303704,-9.68676866666667,39.875,83.0,-328.0,-111.0,397.0,-1.533975,4.0,4.0,0.0,0.0,0.1525,-0.131191625,-0.1179278,-5.831847125,42.875,0.1775,-0.1725,-0.2975,-0.08875,-10.375,-22.0,0.0685714285714286,-6.96244271428571,-0.285714285714286,-13.6255157142857,-6.42857142857143,-10.9344328571429,-0.142857142857143,-0.704302114285714,-0.704302114285714,1575.0,1163.0,1163.0,1163.0,-35.634825,-7.36563125,0.0336487225,156.321428571429,128.661971830986,139.183098591549,0.0,0.0
95,132177,5.0,-0.0010092887333333,0.001269705,-0.0033588953333333,0.2655118,37.2012966666667,-0.0412044,-9.70366233333333,39.875,83.0,-327.857142857143,-112.0,395.857142857143,-1.528356,4.0,4.0,0.0,0.0,0.15,-0.1349517,-0.1200914,-5.834949,43.0,0.18,-0.19,-0.3,-0.13,-11.0,-23.0,0.07,-7.249266,0.0,-18.11679,-6.0,-14.46471,0.0,-0.1195908,-0.1195908,1575.0,1163.0,1163.0,1163.0,-35.6451675,-7.369243625,0.03408635125,156.32,128.725352112676,139.211267605634,0.0,0.0
96,132178,5.0,-0.0007763956,0.001085411,-0.006523037,0.2614044,37.17175,-0.01937176,-9.720556,39.875,83.0,-327.714285714286,-113.0,394.714285714286,-1.54119928571429,3.85714285714286,3.85714285714286,0.0,0.0,0.15,-0.13832745,-0.1219714625,-5.8383415,43.0,0.18,-0.19,-0.3,-0.125,-10.25,-22.125,0.07,-5.340302,0.0,-15.984919125,-4.5,-13.364297125,0.0,-0.298798075,-0.298798075,1574.75,1163.0,1163.0,1163.0,-35.65551,-7.372856,0.03452398,156.32125,128.788732394366,139.239436619718,0.0,0.0
97,132197,5.0,-1.373473e-05,-0.001017536,0.003385558,0.2514011,37.26039,-0.123195,-9.6677,40.125,83.0,-327.571428571429,-114.0,393.571428571429,-1.55404257142857,3.71428571428571,3.71428571428571,0.0,0.0,0.15,-0.1417032,-0.123851525,-5.841734,43.0,0.18,-0.19,-0.3,-0.12,-9.5,-21.25,0.07,-3.431338,0.0,-13.85304825,-3.0,-12.26388425,0.0,-0.47800535,-0.47800535,1574.5,1163.0,1163.0,1163.0,-35.6846014285714,-7.38103757142857,0.0343492528571429,156.3225,128.852112676056,139.267605633803,0.0,0.0
98,132217,5.0,-0.0004922693,-0.0002087178,0.005089795,0.2616592,37.34903,-0.06104188,-9.725486,40.0,83.0,-327.428571428571,-115.0,392.428571428571,-1.56688585714286,3.57142857142857,3.57142857142857,0.0,0.0,0.15,-0.14507895,-0.1257315875,-5.8451265,43.0,0.18,-0.19,-0.3,-0.115,-8.75,-20.375,0.07,-1.522374,0.0,-11.721177375,-1.5,-11.163471375,0.0,-0.657212625,-0.657212625,1574.25,1163.0,1163.0,1163.0,-35.7136928571429,-7.38921914285714,0.0341745257142857,156.32375,128.915492957746,139.295774647887,0.0,0.0
99,132238,5.0,-0.0003621641,-0.0005691968,-0.0007252741,0.2842161,37.26039,-0.07008796,-9.723225,39.625,83.0,-327.285714285714,-116.0,391.285714285714,-1.57972914285714,3.42857142857143,3.42857142857143,0.0,0.0,0.15,-0.1484547,-0.12761165,-5.848519,43.0,0.18,-0.19,-0.3,-0.11,-8.0,-19.5,0.07,0.38659,0.0,-9.5893065,0.0,-10.0630585,0.0,-0.8364199,-0.8364199,1574.0,1163.0,1163.0,1163.0,-35.7427842857143,-7.39740071428571,0.0339997985714286,156.325,128.978873239437,139.323943661972,0.0,0.0
100,132257,5.0,0.0006340976,-0.0001972449,0.01982274,0.2976873,37.34903,-0.1100567,-9.639426,40.375,83.0,-327.142857142857,-117.0,390.142857142857,-1.59257242857143,3.28571428571429,3.28571428571429,0.0,0.0,0.15,-0.15183045,-0.1294917125,-5.8519115,43.0,0.18,-0.19,-0.3,-0.105,-7.25,-18.625,0.07,2.295554,0.0,-7.457435625,1.5,-8.962645625,0.0,-1.015627175,-1.015627175,1573.75,1163.0,1163.0,1163.0,-35.7718757142857,-7.40558228571429,0.0338250714285714,156.32625,129.042253521127,139.352112676056,0.0,0.0
101,132272,5.0,0.0007258088333333,0.0003598647333333,0.01676653,0.295851866666667,37.30471,-0.08426237,-9.65646266666667,40.1666666666667,83.0,-327.0,-118.0,389.0,-1.60541571428571,3.14285714285714,3.14285714285714,0.0,0.0,0.15,-0.1552062,-0.131371775,-5.855304,43.0,0.18,-0.19,-0.3,-0.1,-6.5,-17.75,0.07,4.204518,0.0,-5.32556475,3.0,-7.86223275,0.0,-1.19483445,-1.19483445,1573.5,1163.0,1163.0,1163.0,-35.8009671428571,-7.41376385714286,0.0336503442857143,156.3275,129.105633802817,139.380281690141,0.0,0.0
102,132277,5.0,0.0008175200666666,0.0009169743666666,0.01371032,0.294016433333333,37.26039,-0.05846804,-9.67349933333333,39.9583333333333,83.0,-327.3,-117.6,389.9,-1.618259,3.0,3.0,0.0,0.0,0.15,-0.15858195,-0.1332518375,-5.8586965,43.0,0.18,-0.19,-0.3,-0.095,-5.75,-16.875,0.07,6.113482,0.0,-3.193693875,4.5,-6.761819875,0.0,-1.374041725,-1.374041725,1573.25,1163.0,1163.0,1163.0,-35.8300585714286,-7.42194542857143,0.0334756171428571,156.32875,129.169014084507,139.408450704225,0.0,0.0
103,132278,5.0,0.0009092313,0.001474084,0.01065411,0.292181,37.21607,-0.03267371,-9.690536,39.75,83.0,-327.6,-117.2,390.8,-1.6081449,3.0,3.0,0.0,0.0,0.15,-0.1619577,-0.1351319,-5.862089,43.0,0.18,-0.19,-0.3,-0.09,-5.0,-16.0,0.07,8.022446,0.0,-1.061823,6.0,-5.661407,0.0,-1.553249,-1.553249,1573.0,1163.0,1163.0,1163.0,-35.85915,-7.430127,0.03330089,156.33,129.232394366197,139.43661971831,0.0,0.0
104,132298,5.0,-0.0006196521,0.001323704,0.004193019,0.2889829,37.30471,-0.1454128,-9.809232,39.75,83.0,-327.9,-116.8,391.7,-1.5980308,3.0,3.0,0.0,0.0,0.148,-0.1646059,-0.13642573,-5.8649602,43.0,0.18,-0.187,-0.291,-0.098,-5.3,-16.9,0.069,7.4444571,0.3,-1.2046117,5.1,-4.2531658,0.1,-1.45487753,-1.45487753,1573.2,1163.0,1163.0,1163.0,-35.878245,-7.4200824,0.033375882,156.331,129.295774647887,139.464788732394,0.0,0.0
105,132300,5.0,-0.0006888426333333,0.0009772610666666,0.0006955143333333,0.2826824,37.2751633333333,-0.0946396833333333,-9.79385,39.7083333333333,83.0,-328.2,-116.4,392.6,-1.5879167,3.0,3.0,0.0,0.0,0.146,-0.1672541,-0.13771956,-5.8678314,43.0,0.18,-0.184,-0.282,-0.106,-5.6,-17.8,0.068,6.8664682,0.6,-1.3474004,4.2,-2.8449246,0.2,-1.35650606,-1.35650606,1573.4,1163.0,1163.0,1163.0,-35.89734,-7.4100378,0.033450874,156.332,129.359154929577,139.492957746479,0.0,0.0
106,132305,5.0,-0.0007580331666666,0.0006308181333333,-0.0028019903333333,0.2763819,37.2456166666667,-0.0438665666666667,-9.778468,39.6666666666667,83.0,-328.5,-116.0,393.5,-1.5778026,3.0,3.0,0.0,0.0,0.144,-0.1699023,-0.13901339,-5.8707026,43.0,0.18,-0.181,-0.273,-0.114,-5.9,-18.7,0.067,6.2884793,0.9,-1.4901891,3.3,-1.4366834,0.3,-1.25813459,-1.25813459,1573.6,1163.0,1163.0,1163.0,-35.916435,-7.3999932,0.033525866,156.333,129.422535211268,139.521126760563,0.0,0.0
107,132317,5.0,-0.0008272237,0.0002843752,-0.006299495,0.2700814,37.21607,0.00690655,-9.763086,39.625,83.0,-328.8,-115.6,394.4,-1.5676885,3.0,3.0,0.0,0.0,0.142,-0.1725505,-0.14030722,-5.8735738,43.0,0.18,-0.178,-0.264,-0.122,-6.2,-19.6,0.066,5.7104904,1.2,-1.6329778,2.4,-0.0284422000000006,0.4,-1.15976312,-1.15976312,1573.8,1163.0,1163.0,1163.0,-35.93553,-7.3899486,0.033600858,156.334,129.485915492958,139.549295774648,0.0,0.0
108,132337,5.0,-0.0006743107,-0.001364389,-0.0004945432,0.2382563,37.30471,-0.088399,-9.62457,40.125,83.0,-329.1,-115.2,395.3,-1.5575744,3.0,3.0,0.0,0.0,0.14,-0.1751987,-0.14160105,-5.876445,43.0,0.18,-0.175,-0.255,-0.13,-6.5,-20.5,0.065,5.1325015,1.5,-1.7757665,1.5,1.379799,0.5,-1.06139165,-1.06139165,1574.0,1163.0,1163.0,1163.0,-35.954625,-7.379904,0.03367585,156.335,129.549295774648,139.577464788732,0.0,0.0
109,132352,5.0,-0.000293915385,-0.0012431645,0.0042071904,0.2546492,37.28255,-0.068330715,-9.6855995,40.3125,83.0,-329.4,-114.8,396.2,-1.5474603,3.0,3.0,0.0,0.0,0.138,-0.1778469,-0.14289488,-5.8793162,43.0,0.18,-0.172,-0.246,-0.138,-6.8,-21.4,0.064,4.5545126,1.8,-1.9185552,0.6,2.7880402,0.6,-0.96302018,-0.96302018,1574.2,1163.0,1163.0,1163.0,-35.97372,-7.3698594,0.033750842,156.336,129.612676056338,139.605633802817,0.0,0.0
110,132357,5.0,8.647993e-05,-0.00112194,0.008908924,0.2710421,37.26039,-0.04826243,-9.746629,40.5,83.0,-329.7,-114.4,397.1,-1.5373462,3.0,3.0,0.0,0.0,0.136,-0.1804951,-0.14418871,-5.8821874,43.0,0.18,-0.169,-0.237,-0.146,-7.1,-22.3,0.063,3.9765237,2.1,-2.0613439,-0.3,4.1962814,0.7,-0.86464871,-0.86464871,1574.4,1163.0,1163.0,1163.0,-35.992815,-7.3598148,0.033825834,156.337,129.676056338028,139.633802816901,0.0,0.0
111,132372,5.0,0.0004568702866666,-0.0005146350666666,0.0097151493333333,0.279690166666667,37.2456166666667,-0.0621233433333333,-9.74060066666667,40.25,83.0,-330.0,-114.0,398.0,-1.5272321,3.0,3.0,0.0,0.0,0.134,-0.1831433,-0.14548254,-5.8850586,43.0,0.18,-0.166,-0.228,-0.154,-7.4,-23.2,0.062,3.3985348,2.4,-2.2041326,-1.2,5.6045226,0.8,-0.76627724,-0.76627724,1574.6,1163.0,1163.0,1163.0,-36.01191,-7.3497702,0.033900826,156.338,129.739436619718,139.661971830986,0.0,0.0
112,132377,5.0,0.0008272606433333,9.26698666666667e-05,0.0105213746666667,0.288338233333333,37.2308433333333,-0.0759842566666667,-9.73457233333333,40.0,83.0,-329.285714285714,-114.571428571429,397.285714285714,-1.517118,3.0,3.0,0.0,0.0,0.132,-0.1857915,-0.14677637,-5.8879298,43.0,0.18,-0.163,-0.219,-0.162,-7.7,-24.1,0.061,2.8205459,2.7,-2.3469213,-2.1,7.0127638,0.9,-0.66790577,-0.66790577,1574.8,1163.0,1163.0,1163.0,-36.031005,-7.3397256,0.033975818,156.339,129.802816901408,139.69014084507,0.0,0.0
113,132378,5.0,0.001197651,0.0006999748,0.0113276,0.2969863,37.21607,-0.08984517,-9.728544,39.75,83.0,-328.571428571429,-115.142857142857,396.571428571429,-1.46975828571429,2.85714285714286,2.85714285714286,0.0,0.0,0.13,-0.1884397,-0.1480702,-5.890801,43.0,0.18,-0.16,-0.21,-0.17,-8.0,-25.0,0.06,2.242557,3.0,-2.48971,-3.0,8.421005,1.0,-0.5695343,-0.5695343,1575.0,1163.0,1163.0,1163.0,-36.0501,-7.329681,0.03405081,156.34,129.866197183099,139.718309859155,0.0,0.0
114,132397,5.0,0.0002249554,0.001150454,0.01219967,0.3023886,37.17175,-0.02189969,-9.767118,39.75,83.0,-327.857142857143,-115.714285714286,395.857142857143,-1.42239857142857,2.71428571428571,2.71428571428571,0.0,0.0,0.13,-0.19286875,-0.14978155,-5.895495,43.0,0.18,-0.16,-0.21,-0.151666666666667,-7.33333333333333,-24.0,0.06,1.42849085714286,2.57142857142857,3.25185,-2.14285714285714,5.81321971428571,0.857142857142857,0.0818797428571428,0.0818797428571428,1574.71428571429,1163.0,1163.0,1163.0,-36.06538,-7.31684642857143,0.0341893942857143,156.34,129.929577464789,139.746478873239,0.0,0.0
115,132417,5.0,-0.000668652,-0.0002060657,0.0119742,0.2945129,37.26039,-0.03062779,-9.708739,40.0,83.0,-327.142857142857,-116.285714285714,395.142857142857,-1.37503885714286,2.57142857142857,2.57142857142857,0.0,0.0,0.13,-0.1972978,-0.1514929,-5.900189,43.0,0.18,-0.16,-0.21,-0.133333333333333,-6.66666666666667,-23.0,0.06,0.614424714285714,2.14285714285714,8.99341,-1.28571428571429,3.20543442857143,0.714285714285714,0.733293785714286,0.733293785714286,1574.42857142857,1163.0,1163.0,1163.0,-36.08066,-7.30401185714286,0.0343279785714286,156.34,129.992957746479,139.774647887324,0.0,0.0
116,132437,5.0,-0.0008386899,-0.0007959591,-0.02537109,0.281141,37.34903,-0.02857888,-9.855317,39.75,83.0,-326.428571428571,-116.857142857143,394.428571428571,-1.32767914285714,2.42857142857143,2.42857142857143,0.0,0.0,0.13,-0.20172685,-0.15320425,-5.904883,43.0,0.18,-0.16,-0.21,-0.115,-6.0,-22.0,0.06,-0.199641428571428,1.71428571428571,14.73497,-0.428571428571429,0.597649142857142,0.571428571428571,1.38470782857143,1.38470782857143,1574.14285714286,1163.0,1163.0,1163.0,-36.09594,-7.29117728571429,0.0344665628571429,156.34,130.056338028169,139.802816901408,0.0,0.0
117,132457,5.0,-0.0001233184,0.0007398268,-0.005194652,0.259001,37.30471,-0.02027728,-9.775252,39.75,83.0,-325.714285714286,-117.428571428571,393.714285714286,-1.28031942857143,2.28571428571429,2.28571428571429,0.0,0.0,0.13,-0.2061559,-0.1549156,-5.909577,43.0,0.18,-0.16,-0.21,-0.0966666666666667,-5.33333333333333,-21.0,0.06,-1.01370757142857,1.28571428571429,20.47653,0.428571428571428,-2.01013614285714,0.428571428571429,2.03612187142857,2.03612187142857,1573.85714285714,1163.0,1163.0,1163.0,-36.11122,-7.27834271428571,0.0346051471428571,156.34,130.119718309859,139.830985915493,0.0,0.0
118,132472,5.0,-0.0002035286333333,0.0009804188666666,0.001231842,0.2626809,37.2751633333333,-0.02050529,-9.79292233333333,39.7083333333333,83.0,-325.0,-118.0,393.0,-1.23295971428571,2.14285714285714,2.14285714285714,0.0,0.0,0.13,-0.21058495,-0.15662695,-5.914271,43.0,0.18,-0.16,-0.21,-0.0783333333333333,-4.66666666666667,-20.0,0.06,-1.82777371428571,0.857142857142857,26.21809,1.28571428571429,-4.61792142857143,0.285714285714286,2.68753591428571,2.68753591428571,1573.57142857143,1163.0,1163.0,1163.0,-36.1265,-7.26550814285714,0.0347437314285714,156.34,130.183098591549,139.859154929577,0.0,0.0
119,132477,5.0,-0.0002837388666666,0.0012210109333333,0.007658336,0.2663608,37.2456166666667,-0.0207333,-9.81059266666667,39.6666666666667,83.0,-325.571428571429,-117.142857142857,393.428571428571,-1.1856,2.0,2.0,0.0,0.0,0.13,-0.215014,-0.1583383,-5.918965,43.0,0.18,-0.16,-0.21,-0.06,-4.0,-19.0,0.06,-2.64183985714286,0.428571428571429,31.95965,2.14285714285714,-7.22570671428572,0.142857142857143,3.33894995714286,3.33894995714286,1573.28571428571,1163.0,1163.0,1163.0,-36.14178,-7.25267357142857,0.0348823157142857,156.34,130.246478873239,139.887323943662,0.0,0.0
120,132478,5.0,-0.0003639491,0.001461603,0.01408483,0.2700407,37.21607,-0.02096131,-9.828263,39.625,83.0,-326.142857142857,-116.285714285714,393.857142857143,-1.22573528571429,2.0,2.0,0.0,0.0,0.128571428571429,-0.218524728571429,-0.160112814285714,-5.92304614285714,42.8571428571429,0.142857142857143,-0.15,-0.215714285714286,-0.0142857142857143,-4.85714285714286,-19.4285714285714,0.06,-3.455906,0.0,37.70121,3.0,-9.833492,0.0,3.990364,3.990364,1573.0,1163.0,1163.0,1163.0,-36.15706,-7.239839,0.0350209,156.34,130.30985915493,139.915492957746,0.0,0.0
121,132497,5.0,0.001069285,0.0001066089,0.0302879,0.2617343,37.21607,-0.05902999,-9.589558,39.625,83.0,-326.714285714286,-115.428571428571,394.285714285714,-1.26587057142857,2.0,2.0,0.0,0.0,0.127142857142857,-0.222035457142857,-0.161887328571429,-5.92712728571429,42.7142857142857,0.105714285714286,-0.14,-0.221428571428571,0.0314285714285714,-5.71428571428571,-19.8571428571429,0.0583333333333333,-4.502977,0.166666666666667,33.5473183333333,1.66666666666667,-6.54317583333333,0.0,1.11096666666667,1.11096666666667,1573.0,1163.0,1163.0,1163.0,-36.1222666666667,-7.22797266666667,0.0345289783333333,156.341666666667,130.37323943662,139.943661971831,0.0,0.0
122,132517,5.0,6.40642e-05,-0.0008400226,0.008935974,0.3036731,37.30471,-0.02235049,-9.755308,40.0,83.0,-327.285714285714,-114.571428571429,394.714285714286,-1.30600585714286,2.0,2.0,0.0,0.0,0.125714285714286,-0.225546185714286,-0.163661842857143,-5.93120842857143,42.5714285714286,0.0685714285714286,-0.13,-0.227142857142857,0.0771428571428572,-6.57142857142857,-20.2857142857143,0.0566666666666667,-5.550048,0.333333333333333,29.3934266666667,0.333333333333333,-3.25285966666667,0.0,-1.76843066666667,-1.76843066666667,1573.0,1163.0,1163.0,1163.0,-36.0874733333333,-7.21610633333333,0.0340370566666667,156.343333333333,130.43661971831,139.971830985915,0.0,0.0
